$GPGSA,A,3,29,25,05,12,,,,,,,,,17.75,14.10,10.78*36
$GPGSV,3,1,11,05,34,075,28,10,00,213,,12,45,054,40,15,21,151,*75
$GPGSV,3,2,11,18,53,248,19,20,58,147,22,23,24,196,,24,45,169,17*7A
$GPGSV,3,3,11,25,37,001,37,29,22,333,38,32,03,258,19*49
$GPGLL,0105.72416,S,03700.74205,E,113048.00,A,A*79
$GPRMC,113049.00,A,0105.72377,S,03700.74229,E,0.337,,270421,,,A*6A
$GPVTG,,T,,M,0.337,N,0.624,K,A*24
$GPGGA,113049.00,0105.72377,S,03700.74229,E,1,04,14.10,1535.9,M,-22.0,M,,*65
$GPGSA,A,3,29,25,05,12,,,,,,,,,17.74,14.10,10.77*38
$GPGSV,3,1,11,05,34,075,29,10,00,213,,12,45,054,40,15,21,151,*74
$GPGSV,3,2,11,18,53,248,19,20,58,147,22,23,24,196,,24,45,169,18*75
$GPGSV,3,3,11,25,37,001,37,29,22,333,39,32,03,258,19*48
$GPGLL,0105.72377,S,03700.74229,E,113049.00,A,A*76
$GPRMC,113050.00,A,0105.72338,S,03700.74258,E,0.920,,270421,,,A*63
$GPVTG,,T,,M,0.920,N,1.704,K,A*2A
$GPGGA,113050.00,0105.72338,S,03700.74258,E,1,04,14.10,1535.2,M,-22.0,M,,*6B
$GPGSA,A,3,29,25,05,12,,,,,,,,,17.73,14.10,10.75*3D
$GPGSV,3,1,11,05,34,075,29,10,00,213,,12,45,054,40,15,21,151,*74
$GPGSV,3,2,11,18,53,248,17,20,58,147,21,23,24,196,,24,45,169,18*78
$GPGSV,3,3,11,25,37,001,37,29,22,333,39,32,03,258,18*49
$GPGLL,0105.72338,S,03700.74258,E,113050.00,A,A*73
$GPRMC,113051.00,A,0105.72309,S,03700.74277,E,0.172,,270421,,,A*62
$GPVTG,,T,,M,0.172,N,0.319,K,A*2C
$GPGGA,113051.00,0105.72309,S,03700.74277,E,1,04,14.10,1534.7,M,-22.0,M,,*61
$GPGSA,A,3,29,25,05,12,,,,,,,,,17.72,14.10,10.73*3A
$GPGSV,3,1,11,05,34,075,28,10,00,213,,12,45,054,40,15,21,151,21*76
$GPGSV,3,2,11,18,53,248,16,20,58,147,20,23,24,196,,24,45,169,19*79
$GPGSV,3,3,11,25,37,001,38,29,22,333,39,32,03,258,17*49
$GPGLL,0105.72309,S,03700.74277,E,113051.00,A,A*7D
$GPRMC,113052.00,A,0105.72279,S,03700.74299,E,1.120,,270421,,,A*61
$GPVTG,,T,,M,1.120,N,2.075,K,A*21
$GPGGA,113052.00,0105.72279,S,03700.74299,E,1,04,14.09,1534.2,M,-22.0,M,,*69
$GPGSA,A,3,29,25,05,12,,,,,,,,,17.71,14.09,10.72*30
$GPGSV,3,1,11,05,34,075,28,10,00,213,,12,45,054,41,15,21,151,20*76
$GPGSV,3,2,11,18,53,248,14,20,58,147,19,23,24,196,,24,45,169,19*71
$GPGSV,3,3,11,25,37,001,38,29,22,333,39,32,03,258,17*49
$GPGLL,0105.72279,S,03700.74299,E,113052.00,A,A*78
$GPRMC,113053.00,A,0105.72242,S,03700.74326,E,0.380,,270421,,,A*64
$GPVTG,,T,,M,0.380,N,0.705,K,A*2A
$GPGGA,113053.00,0105.72242,S,03700.74326,E,1,04,14.09,1533.5,M,-22.0,M,,*65
$GPGSA,A,3,29,25,05,12,,,,,,,,,17.69,14.09,10.70*3B
$GPGSV,3,1,11,05,34,075,28,10,00,213,,12,45,054,41,15,21,151,*74
$GPGSV,3,2,11,18,53,248,13,20,58,147,21,23,24,196,,24,45,169,19*7D
$GPGSV,3,3,11,25,37,001,38,29,22,333,39,32,03,258,17*49
$GPGLL,0105.72242,S,03700.74326,E,113053.00,A,A*74
$GPRMC,113054.00,A,0105.72222,S,03700.74339,E,0.253,,270421,,,A*64
$GPVTG,,T,,M,0.253,N,0.468,K,A*2D
$GPGGA,113054.00,0105.72222,S,03700.74339,E,1,04,14.09,1533.2,M,-22.0,M,,*6D
$GPGSA,A,3,29,25,05,12,,,,,,,,,17.68,14.09,10.68*33
$GPGSV,3,1,11,05,34,075,27,10,00,213,,12,45,054,40,15,21,151,*7A
$GPGSV,3,2,11,18,53,248,10,20,58,147,20,23,24,196,,24,45,169,19*7F
$GPGSV,3,3,11,25,37,001,37,29,22,333,38,32,03,258,16*46
$GPGLL,0105.72222,S,03700.74339,E,113054.00,A,A*7B
$GPRMC,113055.00,A,0105.72212,S,03700.74344,E,0.148,,270421,,,A*65
$GPVTG,,T,,M,0.148,N,0.275,K,A*2E
$GPGGA,113055.00,0105.72212,S,03700.74344,E,1,04,14.09,1533.1,M,-22.0,M,,*66
$GPGSA,A,3,29,25,05,12,,,,,,,,,17.67,14.09,10.67*33
$GPGSV,3,1,11,05,34,075,27,10,00,213,,12,45,054,40,15,21,151,*7A
$GPGSV,3,2,11,18,53,248,09,20,58,147,21,23,24,196,,24,45,169,19*76
$GPGSV,3,3,11,25,37,001,38,29,22,333,39,32,03,258,16*48
$GPGLL,0105.72212,S,03700.74344,E,113055.00,A,A*73
$GPRMC,113056.00,A,0105.72206,S,03700.74348,E,0.594,,270421,,,A*6A
$GPVTG,,T,,M,0.594,N,1.100,K,A*2B
$GPGGA,113056.00,0105.72206,S,03700.74348,E,1,04,14.08,1533.0,M,-22.0,M,,*6C
$GPGSA,A,3,29,25,05,12,,,,,,,,,17.66,14.08,10.65*31
$GPGSV,3,1,11,05,34,075,27,10,00,213,,12,45,054,40,15,21,151,*7A
$GPGSV,3,2,11,18,53,248,08,20,58,147,20,23,24,196,,24,45,169,18*77
$GPGSV,3,3,11,25,37,001,38,29,22,333,39,32,03,258,*4F
$GPGLL,0105.72206,S,03700.74348,E,113056.00,A,A*79
$GPRMC,113057.00,A,0105.72184,S,03700.74367,E,0.396,,270421,,,A*6B
$GPVTG,,T,,M,0.396,N,0.734,K,A*2F
$GPGGA,113057.00,0105.72184,S,03700.74367,E,1,04,14.08,1532.4,M,-22.0,M,,*6C
$GPGSA,A,3,29,25,05,12,,,,,,,,,17.65,14.08,10.64*33
$GPGSV,3,1,11,05,34,075,28,10,00,213,,12,45,054,40,15,21,151,20*77
$GPGSV,3,2,11,18,53,248,08,20,58,147,19,23,24,196,,24,45,169,18*7D
$GPGSV,3,3,11,25,37,001,38,29,22,333,39,32,03,258,*4F
$GPGLL,0105.72184,S,03700.74367,E,113057.00,A,A*7C
$GPRMC,113058.00,A,0105.72183,S,03700.74367,E,0.846,,270421,,,A*65
$GPVTG,,T,,M,0.846,N,1.567,K,A*2C
$GPGGA,113058.00,0105.72183,S,03700.74367,E,1,04,14.08,1532.4,M,-22.0,M,,*64
$GPGSA,A,3,29,25,05,12,,,,,,,,,17.64,14.08,10.62*34
$GPGSV,3,1,11,05,34,075,28,10,00,213,,12,45,054,40,15,21,151,*75
$GPGSV,3,2,11,18,53,248,09,20,58,147,18,23,24,196,,24,45,169,16*73
$GPGSV,3,3,11,25,37,001,38,29,22,333,39,32,03,258,*4F
$GPGLL,0105.72183,S,03700.74367,E,113058.00,A,A*74
$GPRMC,113059.00,A,0105.72194,S,03700.74356,E,1.073,,270421,,,A*6F
$GPVTG,,T,,M,1.073,N,1.987,K,A*21
$GPGGA,113059.00,0105.72194,S,03700.74356,E,1,04,14.08,1532.8,M,-22.0,M,,*6D
$GPGSA,A,3,29,25,05,12,,,,,,,,,17.62,14.08,10.60*30
$GPGSV,3,1,11,05,34,075,28,10,00,213,,12,45,054,38,15,21,151,*7A
$GPGSV,3,2,11,18,53,248,11,20,58,147,18,23,24,196,,24,45,169,15*79
$GPGSV,3,3,11,25,37,001,38,29,22,333,39,32,03,258,*4F
$GPGLL,0105.72194,S,03700.74356,E,113059.00,A,A*71
$GPRMC,113100.00,A,0105.72214,S,03700.74346,E,0.424,,270421,,,A*6F
$GPVTG,,T,,M,0.424,N,0.784,K,A*2A
$GPGGA,113100.00,0105.72214,S,03700.74346,E,1,04,14.07,1532.9,M,-22.0,M,,*64
$GPGSA,A,3,29,25,05,12,,,,,,,,,17.61,14.07,10.59*36
$GPGSV,3,1,11,05,34,075,27,10,00,213,,12,45,054,40,15,21,151,*7A
$GPGSV,3,2,11,18,53,248,12,20,58,147,19,23,24,196,,24,45,169,12*7C
$GPGSV,3,3,11,25,37,001,38,29,22,333,38,32,03,258,*4E
$GPGLL,0105.72214,S,03700.74346,E,113100.00,A,A*76
$GPRMC,113101.00,A,0105.72237,S,03700.74334,E,0.223,,270421,,,A*6B
$GPVTG,,T,,M,0.223,N,0.412,K,A*27
$GPGGA,113101.00,0105.72237,S,03700.74334,E,1,04,14.07,1533.1,M,-22.0,M,,*68
$GPGSA,A,3,29,25,05,12,,,,,,,,,17.60,14.07,10.57*39
$GPGSV,3,1,11,05,34,075,28,10,00,213,,12,45,054,39,15,21,151,*7B
$GPGSV,3,2,11,18,53,248,13,20,58,147,19,23,24,196,,24,45,169,09*77
$GPGSV,3,3,11,25,37,001,38,29,22,333,39,32,03,258,*4F
$GPGLL,0105.72237,S,03700.74334,E,113101.00,A,A*73
$GPRMC,113102.00,A,0105.72248,S,03700.74329,E,0.234,,270421,,,A*6A
$GPVTG,,T,,M,0.234,N,0.433,K,A*22
$GPGGA,113102.00,0105.72248,S,03700.74329,E,1,04,14.07,1533.3,M,-22.0,M,,*6D
$GPGSA,A,3,29,25,05,12,,,,,,,,,17.59,14.07,10.56*32
$GPGSV,3,1,11,05,34,075,29,10,00,213,,12,45,054,39,15,21,151,*7A
$GPGSV,3,2,11,18,53,248,15,20,58,147,18,23,24,196,,24,45,169,09*70
$GPGSV,3,3,11,25,37,001,39,29,22,333,39,32,03,258,*4E
$GPGLL,0105.72248,S,03700.74329,E,113102.00,A,A*74
$GPRMC,113103.00,A,0105.72249,S,03700.74327,E,0.754,,270421,,,A*67
$GPVTG,,T,,M,0.754,N,1.397,K,A*29
$GPGGA,113103.00,0105.72249,S,03700.74327,E,1,04,14.07,1533.4,M,-22.0,M,,*64
$GPGSA,A,3,29,25,05,12,,,,,,,,,17.58,14.07,10.54*31
$GPGSV,3,1,11,05,34,075,29,10,00,213,,12,45,054,39,15,21,151,*7A
$GPGSV,3,2,11,18,53,248,15,20,58,147,,23,24,196,,24,45,169,08*78
$GPGSV,3,3,11,25,37,001,39,29,22,333,38,32,03,258,*4F
$GPGLL,0105.72249,S,03700.74327,E,113103.00,A,A*7A
$GPRMC,113104.00,A,0105.72297,S,03700.74284,E,0.628,,270421,,,A*61
$GPVTG,,T,,M,0.628,N,1.164,K,A*2D
$GPGGA,113104.00,0105.72297,S,03700.74284,E,1,04,14.06,1534.7,M,-22.0,M,,*6D
$GPGSA,A,3,29,25,05,12,,,,,,,,,17.56,14.06,10.52*38
$GPGSV,3,1,11,05,34,075,30,10,00,213,,12,45,054,39,15,21,151,*72
$GPGSV,3,2,11,18,53,248,16,20,58,147,,23,24,196,,24,45,169,08*7B
$GPGSV,3,3,11,25,37,001,38,29,22,333,39,32,03,258,*4F
$GPGLL,0105.72297,S,03700.74284,E,113104.00,A,A*76
$GPRMC,113105.00,A,0105.72336,S,03700.74248,E,0.454,,270421,,,A*63
$GPVTG,,T,,M,0.454,N,0.841,K,A*2B
$GPGGA,113105.00,0105.72336,S,03700.74248,E,1,04,14.06,1535.8,M,-22.0,M,,*68
$GPGSA,A,3,29,25,05,12,,,,,,,,,17.55,14.06,10.51*38
$GPGSV,3,1,11,05,34,075,30,10,00,213,,12,45,054,38,15,21,151,*73
$GPGSV,3,2,11,18,53,248,17,20,58,147,,23,24,196,,24,45,169,08*7A
$GPGSV,3,3,11,25,37,001,38,29,22,333,38,32,03,258,*4E
$GPGLL,0105.72336,S,03700.74248,E,113105.00,A,A*7D
$GPRMC,113106.00,A,0105.72353,S,03700.74232,E,0.598,,270421,,,A*6F
$GPVTG,,T,,M,0.598,N,1.107,K,A*20
$GPGGA,113106.00,0105.72353,S,03700.74232,E,1,04,14.06,1536.4,M,-22.0,M,,*6A
$GPGSA,A,3,29,25,05,12,,,,,,,,,17.54,14.06,10.49*30
$GPGSV,3,1,11,05,34,075,30,10,00,213,,12,45,054,38,15,21,151,*73
$GPGSV,3,2,11,18,53,248,17,20,58,147,17,23,24,196,,24,45,169,08*7C
$GPGSV,3,3,11,25,37,001,38,29,22,333,38,32,03,258,*4E
$GPGLL,0105.72353,S,03700.74232,E,113106.00,A,A*70
$GPRMC,113107.00,A,0105.72380,S,03700.74200,E,0.208,,270421,,,A*6F
$GPVTG,,T,,M,0.208,N,0.385,K,A*27
$GPGGA,113107.00,0105.72380,S,03700.74200,E,1,04,14.05,1537.7,M,-22.0,M,,*65
$GPGSA,A,3,29,25,05,12,,,,,,,,,17.53,14.05,10.48*35
$GPGSV,3,1,11,05,34,075,31,10,00,213,,12,45,054,38,15,21,151,*72
$GPGSV,3,2,11,18,53,248,17,20,58,147,15,23,24,196,,24,45,169,08*7E
$GPGSV,3,3,11,25,37,001,38,29,22,333,38,32,03,258,*4E
$GPGLL,0105.72380,S,03700.74200,E,113107.00,A,A*7E
$GPRMC,113108.00,A,0105.72393,S,03700.74185,E,0.521,,270421,,,A*60
$GPVTG,,T,,M,0.521,N,0.964,K,A*2E
$GPGGA,113108.00,0105.72393,S,03700.74185,E,1,04,14.05,1538.5,M,-22.0,M,,*6B
$GPGSA,A,3,29,25,05,12,,,,,,,,,17.52,14.05,10.46*3A
$GPGSV,3,1,11,05,34,075,31,10,00,213,,12,45,054,38,15,21,151,*72
$GPGSV,3,2,11,18,53,248,17,20,58,147,,23,24,196,,24,45,169,18*7B
$GPGSV,3,3,11,25,37,001,38,29,22,333,38,32,03,258,*4E
$GPGLL,0105.72393,S,03700.74185,E,113108.00,A,A*7D
$GPRMC,113109.00,A,0105.72410,S,03700.74169,E,0.356,,270421,,,A*69
$GPVTG,,T,,M,0.356,N,0.659,K,A*29
$GPGGA,113109.00,0105.72410,S,03700.74169,E,1,04,14.05,1539.2,M,-22.0,M,,*62
$GPGSA,A,3,29,25,05,12,,,,,,,,,17.51,14.05,10.45*3A
$GPGSV,3,1,11,05,34,075,32,10,00,213,,12,45,054,38,15,21,151,*71
$GPGSV,3,2,11,18,53,248,16,20,58,147,,23,24,196,,24,45,169,18*7A
$GPGSV,3,3,11,25,37,001,38,29,22,333,38,32,03,258,*4E
$GPGLL,0105.72410,S,03700.74169,E,113109.00,A,A*72
$GPRMC,113110.00,A,0105.72426,S,03700.74153,E,0.012,,270421,,,A*6E
$GPVTG,,T,,M,0.012,N,0.023,K,A*21
$GPGGA,113110.00,0105.72426,S,03700.74153,E,1,04,14.05,1539.9,M,-22.0,M,,*6D
$GPGSA,A,3,29,25,05,12,,,,,,,,,17.49,14.05,10.43*35
$GPGSV,3,1,11,05,34,075,32,10,00,213,,12,45,054,38,15,21,151,*71
$GPGSV,3,2,11,18,53,248,14,20,58,147,,23,24,196,,24,45,169,18*78
$GPGSV,3,3,11,25,37,001,39,29,22,333,38,32,03,258,*4F
$GPGLL,0105.72426,S,03700.74153,E,113110.00,A,A*76
$GPRMC,113111.00,A,0105.72408,S,03700.74163,E,0.733,,270421,,,A*64
$GPVTG,,T,,M,0.733,N,1.357,K,A*24
$GPGGA,113111.00,0105.72408,S,03700.74163,E,1,04,14.04,1540.0,M,-22.0,M,,*65
$GPGSA,A,3,29,25,05,12,,,,,,,,,17.48,14.04,10.41*37
$GPGSV,3,1,11,05,34,075,30,10,00,213,,12,45,054,37,15,21,151,16*7B
$GPGSV,3,2,11,18,53,248,14,20,58,147,,23,24,196,,24,45,169,18*78
$GPGSV,3,3,11,25,37,001,39,29,22,333,37,32,03,258,*40
$GPGLL,0105.72408,S,03700.74163,E,113111.00,A,A*78
$GPRMC,113112.00,A,0105.72405,S,03700.74155,E,1.408,173.79,270421,,,A*70
$GPVTG,173.79,T,,M,1.408,N,2.608,K,A*37
$GPGGA,113112.00,0105.72405,S,03700.74155,E,1,04,14.04,1540.7,M,-22.0,M,,*69
$GPGSA,A,3,29,25,05,12,,,,,,,,,17.47,14.04,10.40*39
$GPGSV,3,1,11,05,34,075,31,10,00,213,,12,45,054,38,15,21,151,15*76
$GPGSV,3,2,11,18,53,248,14,20,58,147,,23,24,196,,24,45,169,18*78
$GPGSV,3,3,11,25,37,001,39,29,22,333,38,32,03,258,*4F
$GPGLL,0105.72405,S,03700.74155,E,113112.00,A,A*73
$GPRMC,113113.00,A,0105.72397,S,03700.74165,E,1.625,186.45,270421,,,A*76
$GPVTG,186.45,T,,M,1.625,N,3.009,K,A*39
$GPGGA,113113.00,0105.72397,S,03700.74165,E,1,04,14.04,1540.4,M,-22.0,M,,*64
$GPGSA,A,3,29,25,05,12,,,,,,,,,17.46,14.04,10.38*37
$GPGSV,3,1,11,05,34,075,30,10,00,213,,12,45,054,37,15,21,151,*7C
$GPGSV,3,2,11,18,53,248,15,20,58,147,,23,24,196,,24,45,169,18*79
$GPGSV,3,3,11,25,37,001,38,29,22,333,36,32,03,258,*40
$GPGLL,0105.72397,S,03700.74165,E,113113.00,A,A*7D
$GPRMC,113114.00,A,0105.72403,S,03700.74156,E,0.822,,270421,,,A*63
$GPVTG,,T,,M,0.822,N,1.523,K,A*2E
$GPGGA,113114.00,0105.72403,S,03700.74156,E,1,04,14.03,1540.8,M,-22.0,M,,*62
$GPGSA,A,3,29,25,05,12,,,,,,,,,17.45,14.03,10.37*3C
$GPGSV,3,1,11,05,34,075,31,10,00,213,,12,45,054,37,15,21,151,*7D
$GPGSV,3,2,11,18,53,248,14,20,58,147,,23,24,196,,24,45,169,17*77
$GPGSV,3,3,11,25,37,001,38,29,22,333,37,32,03,258,*41
$GPGLL,0105.72403,S,03700.74156,E,113114.00,A,A*70
$GPRMC,113115.00,A,0105.72391,S,03700.74156,E,1.176,198.94,270421,,,A*74
$GPVTG,198.94,T,,M,1.176,N,2.177,K,A*32
$GPGGA,113115.00,0105.72391,S,03700.74156,E,1,04,14.03,1541.0,M,-22.0,M,,*66
$GPGSA,A,3,29,25,05,12,,,,,,,,,17.44,14.03,10.35*3F
$GPGSV,3,1,11,05,34,075,31,10,00,213,,12,45,054,37,15,21,151,*7D
$GPGSV,3,2,11,18,53,248,13,20,58,147,,23,24,196,,24,45,169,10*77
$GPGSV,3,3,11,25,37,001,39,29,22,333,37,32,03,258,*40
$GPGLL,0105.72391,S,03700.74156,E,113115.00,A,A*7D
$GPRMC,113116.00,A,0105.72407,S,03700.74141,E,2.121,205.83,270421,,,A*79
$GPVTG,205.83,T,,M,2.121,N,3.928,K,A*31
$GPGGA,113116.00,0105.72407,S,03700.74141,E,1,04,14.03,1541.4,M,-22.0,M,,*6F
$GPGSA,A,3,29,25,05,12,,,,,,,,,17.42,14.03,10.33*3F
$GPGSV,3,1,11,05,34,075,32,10,00,213,,12,45,054,37,15,21,151,*7E
$GPGSV,3,2,11,18,53,248,11,20,58,147,,23,24,196,,24,45,169,17*72
$GPGSV,3,3,11,25,37,001,36,29,22,333,35,32,03,258,*4D
$GPGLL,0105.72407,S,03700.74141,E,113116.00,A,A*70
$GPRMC,113117.00,A,0105.72448,S,03700.74113,E,3.375,208.94,270421,,,A*7D
$GPVTG,208.94,T,,M,3.375,N,6.250,K,A*39
$GPGGA,113117.00,0105.72448,S,03700.74113,E,1,04,14.03,1541.5,M,-22.0,M,,*63
$GPGSA,A,3,29,25,05,12,,,,,,,,,17.41,14.03,10.32*3D
$GPGSV,3,1,11,05,34,075,31,10,00,213,,12,45,054,37,15,21,151,*7D
$GPGSV,3,2,11,18,53,248,11,20,58,147,20,23,24,196,,24,45,169,19*7E
$GPGSV,3,3,11,25,37,001,38,29,22,333,34,32,03,258,*42
$GPGLL,0105.72448,S,03700.74113,E,113117.00,A,A*7D
$GPRMC,113118.00,A,0105.72427,S,03700.74120,E,1.179,209.11,270421,,,A*7B
$GPVTG,209.11,T,,M,1.179,N,2.183,K,A*30
$GPGGA,113118.00,0105.72427,S,03700.74120,E,1,04,14.02,1541.5,M,-22.0,M,,*64
$GPGSA,A,3,29,25,05,12,,,,,,,,,17.40,14.02,10.30*3F
$GPGSV,3,1,11,05,34,075,32,10,00,213,,12,45,054,33,15,21,151,*7A
$GPGSV,3,2,11,18,53,248,09,20,58,147,19,23,24,196,,24,45,169,19*7D
$GPGSV,3,3,11,25,37,001,38,29,22,333,34,32,03,258,*42
$GPGLL,0105.72427,S,03700.74120,E,113118.00,A,A*7B
$GPRMC,113119.00,A,0105.72428,S,03700.74113,E,0.222,,270421,,,A*6C
$GPVTG,,T,,M,0.222,N,0.411,K,A*25
$GPGGA,113119.00,0105.72428,S,03700.74113,E,1,04,14.02,1541.8,M,-22.0,M,,*67
$GPGSA,A,3,29,25,05,12,,,,,,,,,17.39,14.02,10.29*39
$GPGSV,3,1,11,05,34,075,32,10,00,213,,12,45,054,35,15,21,151,*7C
$GPGSV,3,2,11,18,53,248,09,20,58,147,19,23,24,196,,24,45,169,18*7C
$GPGSV,3,3,11,25,37,001,38,29,22,333,35,32,03,258,*43
$GPGLL,0105.72428,S,03700.74113,E,113119.00,A,A*75
$GPRMC,113120.00,A,0105.72436,S,03700.74103,E,0.542,,270421,,,A*69
$GPVTG,,T,,M,0.542,N,1.004,K,A*25
$GPGGA,113120.00,0105.72436,S,03700.74103,E,1,04,14.02,1542.0,M,-22.0,M,,*68
$GPGSA,A,3,29,25,05,12,,,,,,,,,17.38,14.02,10.27*36
$GPGSV,3,1,11,05,34,075,32,10,00,213,,12,45,054,34,15,21,151,*7D
$GPGSV,3,2,11,18,53,248,08,20,58,147,18,23,24,196,16,24,45,169,16*75
$GPGSV,3,3,11,25,37,001,36,29,22,333,35,32,03,258,*4D
$GPGLL,0105.72436,S,03700.74103,E,113120.00,A,A*71
$GPRMC,113121.00,A,0105.72451,S,03700.74082,E,1.302,209.16,270421,,,A*70
$GPVTG,209.16,T,,M,1.302,N,2.411,K,A*37
$GPGGA,113121.00,0105.72451,S,03700.74082,E,1,04,14.01,1542.8,M,-22.0,M,,*6B
$GPGSA,A,3,29,25,05,12,,,,,,,,,17.37,14.01,10.26*3B
$GPGSV,3,1,11,05,34,075,33,10,00,213,,12,45,054,35,15,21,151,*7D
$GPGSV,3,2,11,18,53,248,08,20,58,147,18,23,24,196,17,24,45,169,16*74
$GPGSV,3,3,11,25,37,001,38,29,22,333,36,32,03,258,*40
$GPGLL,0105.72451,S,03700.74082,E,113121.00,A,A*79
$GPRMC,113122.00,A,0105.72505,S,03700.74053,E,4.376,205.78,270421,,,A*7D
$GPVTG,205.78,T,,M,4.376,N,8.105,K,A*3F
$GPGGA,113122.00,0105.72505,S,03700.74053,E,1,04,14.01,1543.1,M,-22.0,M,,*6C
$GPGSA,A,3,29,25,05,12,,,,,,,,,17.35,14.01,10.24*3B
$GPGSV,3,1,11,05,34,075,32,10,00,213,,12,45,054,35,15,21,151,*7C
$GPGSV,3,2,11,18,53,248,08,20,58,147,17,23,24,196,14,24,45,169,16*78
$GPGSV,3,3,11,25,37,001,38,29,22,333,36,32,03,258,*40
$GPGLL,0105.72505,S,03700.74053,E,113122.00,A,A*76
$GPRMC,113123.00,A,0105.72463,S,03700.74081,E,3.146,204.98,270421,,,A*7B
$GPVTG,204.98,T,,M,3.146,N,5.826,K,A*33
$GPGGA,113123.00,0105.72463,S,03700.74081,E,1,04,14.01,1542.8,M,-22.0,M,,*6B
$GPGSA,A,3,29,25,05,12,,,,,,,,,17.34,14.01,10.22*3C
$GPGSV,3,1,11,05,34,075,30,10,00,213,,12,45,054,37,15,21,151,*7C
$GPGSV,3,2,11,18,53,248,07,20,58,147,17,23,24,196,,24,45,169,13*77
$GPGSV,3,3,11,25,37,001,38,29,22,333,36,32,03,258,*40
$GPGLL,0105.72463,S,03700.74081,E,113123.00,A,A*79
$GPRMC,113124.00,A,0105.72402,S,03700.74120,E,2.796,203.76,270421,,,A*7C
$GPVTG,203.76,T,,M,2.796,N,5.178,K,A*3C
$GPGGA,113124.00,0105.72402,S,03700.74120,E,1,04,14.00,1542.3,M,-22.0,M,,*6B
$GPGSA,A,3,29,25,05,12,,,,,,,,,17.33,14.00,10.21*39
$GPGSV,3,1,11,05,34,075,30,10,00,213,,12,45,054,37,15,21,151,*7C
$GPGSV,3,2,11,18,53,248,07,20,58,147,,23,24,196,,24,45,169,12*70
$GPGSV,3,3,11,25,37,001,39,29,22,333,36,32,03,258,*41
$GPGLL,0105.72402,S,03700.74120,E,113124.00,A,A*73
$GPRMC,113125.00,A,0105.72377,S,03700.74132,E,2.368,203.04,270421,,,A*7B
$GPVTG,203.04,T,,M,2.368,N,4.385,K,A*3D
$GPGGA,113125.00,0105.72377,S,03700.74132,E,1,04,14.00,1542.4,M,-22.0,M,,*6B
$GPGSA,A,3,29,25,05,12,,,,,,,,,17.32,14.00,10.19*33
$GPGSV,3,1,11,05,34,075,30,10,00,213,,12,45,054,37,15,21,151,*7C
$GPGSV,3,2,11,18,53,248,,20,58,147,,23,24,196,,24,45,169,10*75
$GPGSV,3,3,11,25,37,001,39,29,22,333,37,32,03,258,*40
$GPGLL,0105.72377,S,03700.74132,E,113125.00,A,A*74
$GPRMC,113126.00,A,0105.72372,S,03700.74136,E,3.428,202.09,270421,,,A*77
$GPVTG,202.09,T,,M,3.428,N,6.348,K,A*30
$GPGGA,113126.00,0105.72372,S,03700.74136,E,1,04,14.00,1542.4,M,-22.0,M,,*69
$GPGSA,A,3,29,25,05,12,,,,,,,,,17.31,14.00,10.18*31
$GPGSV,3,1,11,05,34,075,30,10,00,213,,12,45,054,35,15,21,151,*7E
$GPGSV,3,2,11,18,53,248,,20,58,147,,23,24,196,,24,45,169,08*7C
$GPGSV,3,3,11,25,37,001,37,29,22,333,36,32,03,258,*4F
$GPGLL,0105.72372,S,03700.74136,E,113126.00,A,A*76
$GPRMC,113127.00,A,0105.72386,S,03700.74103,E,2.447,205.15,270421,,,A*79
$GPVTG,205.15,T,,M,2.447,N,4.531,K,A*38
$GPGGA,113127.00,0105.72386,S,03700.74103,E,1,04,14.00,1544.0,M,-22.0,M,,*67
$GPGSA,A,3,29,25,05,12,,,,,,,,,17.30,14.00,10.16*3E
$GPGSV,3,1,11,05,34,075,31,10,00,213,,12,45,054,37,15,21,151,*7D
$GPGSV,3,2,11,18,53,248,,20,58,147,,23,24,196,,24,45,169,08*7C
$GPGSV,3,3,11,25,37,001,39,29,22,333,38,32,03,258,*4F
$GPGLL,0105.72386,S,03700.74103,E,113127.00,A,A*7A
$GPRMC,113128.00,A,0105.72370,S,03700.74106,E,2.124,205.77,270421,,,A*7E
$GPVTG,205.77,T,,M,2.124,N,3.934,K,A*32
$GPGGA,113128.00,0105.72370,S,03700.74106,E,1,04,13.99,1544.2,M,-22.0,M,,*61
$GPGSA,A,3,29,25,05,12,,,,,,,,,17.28,13.99,10.15*33
$GPGSV,3,1,11,05,34,075,31,10,00,213,,12,45,054,37,15,21,151,*7D
$GPGSV,3,2,11,18,53,248,,20,58,147,,23,24,196,,24,45,169,08*7C
$GPGSV,3,3,11,25,37,001,39,29,22,333,38,32,03,258,*4F
$GPGLL,0105.72370,S,03700.74106,E,113128.00,A,A*79
$GPRMC,113129.00,A,0105.72363,S,03700.74105,E,2.430,206.38,270421,,,A*76
$GPVTG,206.38,T,,M,2.430,N,4.500,K,A*36
$GPGGA,113129.00,0105.72363,S,03700.74105,E,1,04,13.99,1544.3,M,-22.0,M,,*60
$GPGSA,A,3,29,25,05,12,,,,,,,,,17.27,13.99,10.13*3A
$GPGSV,3,1,11,05,34,075,32,10,00,213,,12,45,054,37,15,21,151,*7E
$GPGSV,3,2,11,18,53,248,,20,58,147,,23,24,196,,24,45,169,08*7C
$GPGSV,3,3,11,25,37,001,39,29,22,333,38,32,03,258,*4F
$GPGLL,0105.72363,S,03700.74105,E,113129.00,A,A*79
$GPRMC,113130.00,A,0105.72331,S,03700.74133,E,2.387,205.32,270421,,,A*7E
$GPVTG,205.32,T,,M,2.387,N,4.421,K,A*36
$GPGGA,113130.00,0105.72331,S,03700.74133,E,1,04,13.99,1543.5,M,-22.0,M,,*6B
$GPGSA,A,3,29,25,05,12,,,,,,,,,17.26,13.99,10.11*39
$GPGSV,3,1,11,05,33,074,31,10,00,213,,12,45,054,37,15,21,151,*7B
$GPGSV,3,2,11,18,53,248,,20,58,147,,23,24,196,,24,45,169,08*7C
$GPGSV,3,3,11,25,37,001,39,29,22,333,37,32,03,258,*40
$GPGLL,0105.72331,S,03700.74133,E,113130.00,A,A*73
$GPRMC,113131.00,A,0105.72320,S,03700.74139,E,0.764,,270421,,,A*66
$GPVTG,,T,,M,0.764,N,1.415,K,A*27
$GPGGA,113131.00,0105.72320,S,03700.74139,E,1,04,13.98,1543.5,M,-22.0,M,,*61
$GPGSA,A,3,29,25,05,12,,,,,,,,,17.25,13.98,10.10*3A
$GPGSV,3,1,11,05,33,074,31,10,00,213,,12,45,054,37,15,21,151,*7B
$GPGSV,3,2,11,18,53,248,,20,58,147,,23,24,196,,24,45,169,08*7C
$GPGSV,3,3,11,25,37,001,39,29,22,333,37,32,03,258,*40
$GPGLL,0105.72320,S,03700.74139,E,113131.00,A,A*78
$GPRMC,113132.00,A,0105.72298,S,03700.74155,E,0.468,,270421,,,A*62
$GPVTG,,T,,M,0.468,N,0.866,K,A*21
$GPGGA,113132.00,0105.72298,S,03700.74155,E,1,04,13.98,1543.2,M,-22.0,M,,*6D
$GPGSA,A,3,29,25,05,12,,,,,,,,,17.24,13.98,10.08*32
$GPGSV,3,1,11,05,33,074,32,10,00,213,,12,45,054,37,15,21,151,*78
$GPGSV,3,2,11,18,53,248,,20,58,147,,23,24,196,,24,45,169,06*72
$GPGSV,3,3,11,25,37,001,39,29,22,333,37,32,03,258,*40
$GPGLL,0105.72298,S,03700.74155,E,113132.00,A,A*73
$GPRMC,113133.00,A,0105.72281,S,03700.74161,E,0.374,,270421,,,A*66
$GPVTG,,T,,M,0.374,N,0.693,K,A*2F
$GPGGA,113133.00,0105.72281,S,03700.74161,E,1,04,13.98,1543.3,M,-22.0,M,,*62
$GPGSA,A,3,29,25,05,12,,,,,,,,,17.23,13.98,10.07*3A
$GPGSV,3,1,11,05,33,074,32,10,00,213,,12,45,054,37,15,21,151,17*7E
$GPGSV,3,2,11,18,53,248,,20,58,147,,23,24,196,,24,45,169,06*72
$GPGSV,3,3,11,25,37,001,39,29,22,333,37,32,03,258,*40
$GPGLL,0105.72281,S,03700.74161,E,113133.00,A,A*7D
$GPRMC,113134.00,A,0105.72280,S,03700.74160,E,0.126,,270421,,,A*64
$GPVTG,,T,,M,0.126,N,0.233,K,A*24
$GPGGA,113134.00,0105.72280,S,03700.74160,E,1,04,13.97,1543.5,M,-22.0,M,,*6C
$GPGSA,A,3,29,25,05,12,,,,,,,,,17.21,13.97,10.05*35
$GPGSV,3,1,11,05,33,074,31,10,00,213,,12,45,054,37,15,21,151,17*7D
$GPGSV,3,2,11,18,53,248,,20,58,147,,23,24,196,,24,45,169,06*72
$GPGSV,3,3,11,25,37,001,37,29,22,333,36,32,03,258,*4F
$GPGLL,0105.72280,S,03700.74160,E,113134.00,A,A*7A
$GPRMC,113135.00,A,0105.72269,S,03700.74163,E,0.392,,270421,,,A*6C
$GPVTG,,T,,M,0.392,N,0.726,K,A*28
$GPGGA,113135.00,0105.72269,S,03700.74163,E,1,04,13.97,1543.5,M,-22.0,M,,*69
$GPGSA,A,3,29,25,05,12,,,,,,,,,17.20,13.97,10.04*35
$GPGSV,3,1,11,05,33,074,32,10,00,213,,12,45,054,37,15,21,151,17*7E
$GPGSV,3,2,11,18,53,248,,20,58,147,,23,24,196,,24,45,169,06*72
$GPGSV,3,3,11,25,37,001,38,29,22,333,37,32,03,258,*41
$GPGLL,0105.72269,S,03700.74163,E,113135.00,A,A*7F
$GPRMC,113136.00,A,0105.72275,S,03700.74157,E,0.893,,270421,,,A*6F
$GPVTG,,T,,M,0.893,N,1.655,K,A*26
$GPGGA,113136.00,0105.72275,S,03700.74157,E,1,04,13.97,1543.9,M,-22.0,M,,*6C
$GPGSA,A,3,29,25,05,12,,,,,,,,,17.19,13.97,10.02*39
$GPGSV,3,1,11,05,33,074,33,10,00,213,,12,45,054,38,15,21,151,16*71
$GPGSV,3,2,11,18,53,248,,20,58,147,,23,24,196,20,24,45,169,06*70
$GPGSV,3,3,11,25,37,001,39,29,22,333,37,32,03,258,*40
$GPGLL,0105.72275,S,03700.74157,E,113136.00,A,A*76
$GPRMC,113137.00,A,0105.72271,S,03700.74151,E,1.188,,270421,,,A*6E
$GPVTG,,T,,M,1.188,N,2.200,K,A*23
$GPGGA,113137.00,0105.72271,S,03700.74151,E,1,04,13.96,1544.3,M,-22.0,M,,*63
$GPGSA,A,3,29,25,05,12,,,,,,,,,17.18,13.96,10.01*3A
$GPGSV,3,1,11,05,33,074,32,10,00,213,,12,45,055,37,15,21,151,14*7C
$GPGSV,3,2,11,18,53,248,,20,58,147,,23,24,196,18,24,45,169,06*7B
$GPGSV,3,3,11,25,37,001,38,29,22,333,37,32,03,258,*41
$GPGLL,0105.72271,S,03700.74151,E,113137.00,A,A*75
$GPRMC,113138.00,A,0105.72248,S,03700.74162,E,0.640,,270421,,,A*69
$GPVTG,,T,,M,0.640,N,1.184,K,A*2D
$GPGGA,113138.00,0105.72248,S,03700.74162,E,1,04,13.96,1544.2,M,-22.0,M,,*67
$GPGSA,A,3,29,25,05,12,,,,,,,,,17.17,13.96,9.99*0C
$GPGSV,3,1,11,05,33,074,32,10,00,213,,12,45,055,37,15,21,151,14*7C
$GPGSV,3,2,11,18,53,248,,20,58,147,,23,24,196,16,24,45,169,09*7A
$GPGSV,3,3,11,25,37,001,39,29,22,333,37,32,03,258,*40
$GPGLL,0105.72248,S,03700.74162,E,113138.00,A,A*70
$GPRMC,113139.00,A,0105.72238,S,03700.74166,E,0.492,,270421,,,A*66
$GPVTG,,T,,M,0.492,N,0.910,K,A*24
$GPGGA,113139.00,0105.72238,S,03700.74166,E,1,04,13.96,1544.2,M,-22.0,M,,*65
$GPGSA,A,3,29,25,05,12,,,,,,,,,17.16,13.96,9.97*03
$GPGSV,3,1,11,05,33,074,32,10,00,213,,12,45,055,36,15,21,151,15*7C
$GPGSV,3,2,11,18,53,248,,20,58,147,,23,24,196,14,24,45,169,09*78
$GPGSV,3,3,11,25,37,001,38,29,22,333,36,32,03,258,*40
$GPGLL,0105.72238,S,03700.74166,E,113139.00,A,A*72
$GPRMC,113140.00,A,0105.72236,S,03700.74169,E,1.239,135.13,270421,,,A*74
$GPVTG,135.13,T,,M,1.239,N,2.294,K,A*3C
$GPGGA,113140.00,0105.72236,S,03700.74169,E,1,04,13.95,1543.9,M,-22.0,M,,*65
$GPGSA,A,3,29,25,05,12,,,,,,,,,17.14,13.95,9.96*03
$GPGSV,3,1,11,05,33,074,32,10,00,213,,12,45,055,37,15,21,151,15*7D
$GPGSV,3,2,11,18,53,248,,20,58,147,,23,24,196,14,24,45,169,10*70
$GPGSV,3,3,11,25,37,001,38,29,22,333,37,32,03,258,*41
$GPGLL,0105.72236,S,03700.74169,E,113140.00,A,A*7D
$GPRMC,113141.00,A,0105.72248,S,03700.74162,E,1.766,62.10,270421,,,A*48
$GPVTG,62.10,T,,M,1.766,N,3.270,K,A*08
$GPGGA,113141.00,0105.72248,S,03700.74162,E,1,04,13.95,1544.0,M,-22.0,M,,*68
$GPGSA,A,3,29,25,05,12,,,,,,,,,17.13,13.95,9.94*06
$GPGSV,3,1,11,05,33,074,32,10,00,213,,12,45,055,37,15,21,151,14*7C
$GPGSV,3,2,11,18,53,248,,20,58,147,,23,24,196,14,24,45,169,10*70
$GPGSV,3,3,11,25,37,001,38,29,22,333,37,32,03,258,*41
$GPGLL,0105.72248,S,03700.74162,E,113141.00,A,A*7E
$GPRMC,113142.00,A,0105.72238,S,03700.74164,E,1.282,50.21,270421,,,A*46
$GPVTG,50.21,T,,M,1.282,N,2.375,K,A*01
$GPGGA,113142.00,0105.72238,S,03700.74164,E,1,04,13.95,1544.1,M,-22.0,M,,*6B
$GPGSA,A,3,29,25,05,12,,,,,,,,,17.12,13.95,9.93*00
$GPGSV,3,1,11,05,33,074,32,10,00,213,,12,45,055,37,15,21,151,16*7E
$GPGSV,3,2,11,18,53,248,,20,58,147,,23,24,196,15,24,45,169,10*71
$GPGSV,3,3,11,25,37,001,38,29,22,333,37,32,03,258,*41
$GPGLL,0105.72238,S,03700.74164,E,113142.00,A,A*7C
$GPRMC,113143.00,A,0105.72254,S,03700.74151,E,0.516,,270421,,,A*68
$GPVTG,,T,,M,0.516,N,0.956,K,A*2B
$GPGGA,113143.00,0105.72254,S,03700.74151,E,1,04,13.94,1544.6,M,-22.0,M,,*60
$GPGSA,A,3,29,25,05,12,,,,,,,,,17.11,13.94,9.91*00
$GPGSV,3,1,11,05,33,074,31,10,00,213,,12,45,055,38,15,21,151,16*72
$GPGSV,3,2,11,18,53,249,,20,58,147,,23,24,196,15,24,45,169,*71
$GPGSV,3,3,11,25,37,001,37,29,22,333,37,32,03,258,*4E
$GPGLL,0105.72254,S,03700.74151,E,113143.00,A,A*71
$GPRMC,113144.00,A,0105.72280,S,03700.74130,E,0.871,,270421,,,A*6D
$GPVTG,,T,,M,0.871,N,1.613,K,A*28
$GPGGA,113144.00,0105.72280,S,03700.74130,E,1,04,13.94,1545.2,M,-22.0,M,,*6C
$GPGSA,A,3,29,25,05,12,,,,,,,,,17.10,13.94,9.90*00
$GPGSV,3,1,11,05,33,074,30,10,00,213,,12,45,055,38,15,21,151,16*73
$GPGSV,3,2,11,18,53,249,,20,58,147,,23,24,196,,24,45,169,*75
$GPGSV,3,3,11,25,37,001,37,29,22,333,37,32,03,258,*4E
$GPGLL,0105.72280,S,03700.74130,E,113144.00,A,A*78
$GPRMC,113145.00,A,0105.72306,S,03700.74109,E,1.401,,270421,,,A*63
$GPVTG,,T,,M,1.401,N,2.594,K,A*2D
$GPGGA,113145.00,0105.72306,S,03700.74109,E,1,04,13.94,1546.0,M,-22.0,M,,*69
$GPGSA,A,3,29,25,05,12,,,,,,,,,17.09,13.94,9.88*01
$GPGSV,3,1,11,05,33,074,30,10,00,213,,12,45,055,37,15,21,151,*7B
$GPGSV,3,2,11,18,53,249,,20,59,146,18,23,24,196,,24,45,169,*7C
$GPGSV,3,3,11,25,37,001,37,29,22,333,36,32,03,258,*4F
$GPGLL,0105.72306,S,03700.74109,E,113145.00,A,A*7C
$GPRMC,113146.00,A,0105.72331,S,03700.74090,E,0.989,,270421,,,A*69
$GPVTG,,T,,M,0.989,N,1.832,K,A*23
$GPGGA,113146.00,0105.72331,S,03700.74090,E,1,04,13.93,1546.7,M,-22.0,M,,*6F
$GPGSA,A,3,29,25,05,12,,,,,,,,,17.07,13.93,9.87*07
$GPGSV,3,1,11,05,33,074,29,10,00,213,,12,45,055,37,15,21,151,*73
$GPGSV,3,2,11,18,53,249,,20,59,146,18,23,24,196,,24,45,169,*7C
$GPGSV,3,3,11,25,37,001,37,29,22,333,36,32,03,258,*4F
$GPGLL,0105.72331,S,03700.74090,E,113146.00,A,A*7A
$GPRMC,113147.00,A,0105.72349,S,03700.74075,E,0.259,,270421,,,A*6A
$GPVTG,,T,,M,0.259,N,0.480,K,A*21
$GPGGA,113147.00,0105.72349,S,03700.74075,E,1,04,13.93,1547.3,M,-22.0,M,,*6F
$GPGSA,A,3,29,25,05,12,,,,,,,,,17.06,13.93,9.85*04
$GPGSV,3,1,11,05,33,074,30,10,00,213,,12,45,055,37,15,21,151,*7B
$GPGSV,3,2,11,18,53,249,,20,59,146,18,23,24,196,,24,45,169,*7C
$GPGSV,3,3,11,25,37,001,37,29,22,333,37,32,03,258,*4E
$GPGLL,0105.72349,S,03700.74075,E,113147.00,A,A*7F
$GPRMC,113148.00,A,0105.72376,S,03700.74056,E,0.098,,270421,,,A*67
$GPVTG,,T,,M,0.098,N,0.181,K,A*2A
$GPGGA,113148.00,0105.72376,S,03700.74056,E,1,04,13.93,1547.9,M,-22.0,M,,*67
$GPGSA,A,3,29,25,05,12,,,,,,,,,17.05,13.93,9.84*06
$GPGSV,3,1,11,05,33,074,29,10,00,213,,12,45,055,37,15,21,151,*73
$GPGSV,3,2,11,18,53,249,,20,59,146,18,23,25,196,,24,45,169,*7D
$GPGSV,3,3,11,25,37,001,37,29,22,333,37,32,03,258,*4E
$GPGLL,0105.72376,S,03700.74056,E,113148.00,A,A*7D
$GPRMC,113149.00,A,0105.72393,S,03700.74051,E,0.460,,270421,,,A*69
$GPVTG,,T,,M,0.460,N,0.852,K,A*2E
$GPGGA,113149.00,0105.72393,S,03700.74051,E,1,04,13.92,1548.1,M,-22.0,M,,*6C
$GPGSA,A,3,29,25,05,12,,,,,,,,,17.04,13.92,9.82*00
$GPGSV,3,1,11,05,33,074,29,10,00,213,,12,45,055,37,15,21,151,*73
$GPGSV,3,2,11,18,53,249,,20,59,146,18,23,25,196,,24,44,169,*7C
$GPGSV,3,3,11,25,37,001,37,29,22,333,38,32,03,258,*41
$GPGLL,0105.72393,S,03700.74051,E,113149.00,A,A*70
$GPRMC,113150.00,A,0105.72455,S,03700.74005,E,1.036,,270421,,,A*6B
$GPVTG,,T,,M,1.036,N,1.919,K,A*27
$GPGGA,113150.00,0105.72455,S,03700.74005,E,1,04,13.92,1549.5,M,-22.0,M,,*6D
$GPGSA,A,3,29,25,05,12,,,,,,,,,17.03,13.92,9.80*05
$GPGSV,3,1,11,05,33,074,29,10,00,213,,12,45,055,38,15,21,151,*7C
$GPGSV,3,2,11,18,53,249,,20,59,146,18,23,25,196,,24,44,169,*7C
$GPGSV,3,3,11,25,37,001,37,29,22,333,39,32,03,258,*40
$GPGLL,0105.72455,S,03700.74005,E,113150.00,A,A*74
$GPRMC,113151.00,A,0105.72489,S,03700.73981,E,0.591,,270421,,,A*60
$GPVTG,,T,,M,0.591,N,1.094,K,A*22
$GPGGA,113151.00,0105.72489,S,03700.73981,E,1,04,13.92,1550.4,M,-22.0,M,,*66
$GPGSA,A,3,29,25,05,12,,,,,,,,,17.02,13.92,9.79*02
$GPGSV,3,1,11,05,33,074,30,10,00,213,,12,45,055,38,15,21,151,*74
$GPGSV,3,2,11,18,53,249,20,20,59,146,20,23,25,196,,24,44,169,*75
$GPGSV,3,3,11,25,37,001,38,29,22,333,38,32,03,258,*4E
$GPGLL,0105.72489,S,03700.73981,E,113151.00,A,A*76
$GPRMC,113152.00,A,0105.72514,S,03700.73966,E,0.210,,270421,,,A*61
$GPVTG,,T,,M,0.210,N,0.390,K,A*2A
$GPGGA,113152.00,0105.72514,S,03700.73966,E,1,04,13.91,1551.0,M,-22.0,M,,*6F
$GPGSA,A,3,29,25,05,12,,,,,,,,,17.00,13.91,9.77*0D
$GPGSV,3,1,11,05,33,074,31,10,00,213,,12,45,055,38,15,21,151,*75
$GPGSV,3,2,11,18,53,249,17,20,59,146,21,23,25,196,,24,44,169,*70
$GPGSV,3,3,11,25,37,001,38,29,22,333,38,32,03,258,*4E
$GPGLL,0105.72514,S,03700.73966,E,113152.00,A,A*79
$GPRMC,113153.00,A,0105.72527,S,03700.73961,E,0.689,,270421,,,A*63
$GPVTG,,T,,M,0.689,N,1.276,K,A*26
$GPGGA,113153.00,0105.72527,S,03700.73961,E,1,04,13.91,1551.1,M,-22.0,M,,*68
$GPGSA,A,3,29,25,05,12,,,,,,,,,16.99,13.91,9.76*0D
$GPGSV,3,1,11,05,33,074,31,10,00,213,,12,45,055,38,15,21,151,*75
$GPGSV,3,2,11,18,53,249,14,20,59,146,23,23,25,196,,24,44,169,*71
$GPGSV,3,3,11,25,37,001,38,29,22,333,38,32,03,258,*4E
$GPGLL,0105.72527,S,03700.73961,E,113153.00,A,A*7F
$GPRMC,113154.00,A,0105.72552,S,03700.73947,E,1.154,38.46,270421,,,A*43
$GPVTG,38.46,T,,M,1.154,N,2.137,K,A*02
$GPGGA,113154.00,0105.72552,S,03700.73947,E,1,04,13.91,1551.6,M,-22.0,M,,*6E
$GPGSA,A,3,29,25,05,12,,,,,,,,,16.98,13.91,9.74*0E
$GPGSV,3,1,11,05,33,074,31,10,00,213,,12,45,055,38,15,21,151,18*7C
$GPGSV,3,2,11,18,53,249,13,20,59,146,23,23,25,196,,24,44,169,*76
$GPGSV,3,3,11,25,37,001,38,29,22,333,38,32,03,258,*4E
$GPGLL,0105.72552,S,03700.73947,E,113154.00,A,A*7E
$GPRMC,113155.00,A,0105.72581,S,03700.73928,E,0.539,,270421,,,A*6C
$GPVTG,,T,,M,0.539,N,0.998,K,A*24
$GPGGA,113155.00,0105.72581,S,03700.73928,E,1,04,13.90,1552.2,M,-22.0,M,,*6E
$GPGSA,A,3,29,25,05,12,,,,,,,,,16.97,13.90,9.73*07
$GPGSV,3,1,11,05,33,074,31,10,00,213,,12,45,055,38,15,21,151,19*7D
$GPGSV,3,2,11,18,53,249,13,20,59,146,23,23,25,196,,24,44,169,*76
$GPGSV,3,3,11,25,37,001,38,29,22,333,38,32,03,258,*4E
$GPGLL,0105.72581,S,03700.73928,E,113155.00,A,A*78
$GPRMC,113156.00,A,0105.72612,S,03700.73912,E,0.227,,270421,,,A*67
$GPVTG,,T,,M,0.227,N,0.420,K,A*22
$GPGGA,113156.00,0105.72612,S,03700.73912,E,1,04,13.90,1552.6,M,-22.0,M,,*69
$GPGSA,A,3,29,25,05,12,,,,,,,,,16.96,13.90,9.71*04
$GPGSV,3,1,11,05,33,074,31,10,00,213,,12,45,055,38,15,21,151,19*7D
$GPGSV,3,2,11,18,53,249,07,20,59,146,23,23,25,196,,24,44,169,*73
$GPGSV,3,3,11,25,37,001,39,29,22,333,38,32,03,258,*4F
$GPGLL,0105.72612,S,03700.73912,E,113156.00,A,A*7B
$GPRMC,113157.00,A,0105.72654,S,03700.73887,E,0.339,,270421,,,A*67
$GPVTG,,T,,M,0.339,N,0.628,K,A*26
$GPGGA,113157.00,0105.72654,S,03700.73887,E,1,04,13.90,1553.1,M,-22.0,M,,*61
$GPGSA,A,3,29,25,05,12,,,,,,,,,16.95,13.90,9.70*06
$GPGSV,3,1,11,05,33,074,31,10,00,213,,12,45,055,38,15,21,151,18*7C
$GPGSV,3,2,11,18,53,249,07,20,59,146,24,23,25,196,,24,44,169,*74
$GPGSV,3,3,11,25,37,001,39,29,22,333,38,32,03,257,*40
$GPGLL,0105.72654,S,03700.73887,E,113157.00,A,A*75
$GPRMC,113158.00,A,0105.72691,S,03700.73866,E,0.252,,270421,,,A*62
$GPVTG,,T,,M,0.252,N,0.467,K,A*23
$GPGGA,113158.00,0105.72691,S,03700.73866,E,1,04,13.89,1553.5,M,-22.0,M,,*64
$GPGSA,A,3,29,25,05,12,,,,,,,,,16.93,13.89,9.68*01
$GPGSV,3,1,11,05,33,074,31,10,00,213,,12,45,055,38,15,21,151,18*7C
$GPGSV,3,2,11,18,53,249,07,20,59,146,24,23,25,196,,24,44,169,*74
$GPGSV,3,3,11,25,37,001,39,29,22,333,38,32,03,257,*40
$GPGLL,0105.72691,S,03700.73866,E,113158.00,A,A*7C
$GPRMC,113159.00,A,0105.72725,S,03700.73843,E,0.346,,270421,,,A*6E
$GPVTG,,T,,M,0.346,N,0.640,K,A*20
$GPGGA,113159.00,0105.72725,S,03700.73843,E,1,04,13.89,1554.0,M,-22.0,M,,*6E
$GPGSA,A,3,29,25,05,12,,,,,,,,,16.92,13.89,9.67*0F
$GPGSV,3,1,11,05,33,074,31,10,00,213,,12,45,055,38,15,21,151,17*73
$GPGSV,3,2,11,18,53,249,07,20,59,146,23,23,25,196,,24,44,169,*73
