'$GPRMC,134807.00,A,0105.71469,S,03700.75564,E,3.591,86.58,210421,,,A*4B\n'
'$GPVTG,86.58,T,,M,3.591,N,6.650,K,A*05\n'
'$GPGGA,134807.00,0105.71469,S,03700.75564,E,1,05,6.46,1542.1,M,-22.0,M,,*5F\n'
'$GPGSA,A,3,20,25,31,29,18,,,,,,,,10.14,6.46,7.81*39\n'
'$GPGSV,4,1,13,05,01,037,,10,43,203,17,12,36,130,,15,20,100,*7C\n'
'$GPGSV,4,2,13,18,39,333,20,20,56,039,39,23,76,175,,24,07,146,*7F\n'
'$GPGSV,4,3,13,25,74,095,08,26,05,326,19,29,23,022,42,31,24,280,10*71\n'
'$GPGSV,4,4,13,32,11,212,*4B\n'
'$GPGLL,0105.71469,S,03700.75564,E,134807.00,A,A*75\n'
'$GPRMC,134808.00,A,0105.71451,S,03700.75459,E,2.084,86.75,210421,,,A*4F\n'
'$GPVTG,86.75,T,,M,2.084,N,3.860,K,A*02\n'
'$GPGGA,134808.00,0105.71451,S,03700.75459,E,1,05,2.46,1542.2,M,-22.0,M,,*53\n'
'$GPGSA,A,3,20,25,31,29,18,,,,,,,,4.15,2.46,3.35*02\n'
'$GPGSV,4,1,13,05,01,037,,10,43,203,16,12,36,130,,15,20,100,*7D\n'
'$GPGSV,4,2,13,18,39,333,21,20,56,039,39,23,76,175,,24,07,146,*7E\n'
'$GPGSV,4,3,13,25,74,095,10,26,05,326,19,29,23,022,42,31,24,280,13*7B\n'
'$GPGSV,4,4,13,32,11,212,*4B\n'
'$GPGLL,0105.71451,S,03700.75459,E,134808.00,A,A*7E\n'
'$GPRMC,134809.00,A,0105.71440,S,03700.75435,E,1.500,,210421,,,A*6C\n'
'$GPVTG,,T,,M,1.500,N,2.778,K,A*2D\n'
'$GPGGA,134809.00,0105.71440,S,03700.75435,E,1,05,2.46,1542.2,M,-22.0,M,,*58\n'
'$GPGSA,A,3,20,25,31,29,18,,,,,,,,4.15,2.46,3.35*02\n'
'$GPGSV,4,1,13,05,01,037,,10,43,203,,12,36,130,,15,20,100,*7A\n'
'$GPGSV,4,2,13,18,39,333,20,20,56,039,38,23,76,175,,24,07,146,*7E\n'
'$GPGSV,4,3,13,25,74,095,10,26,05,326,19,29,23,022,41,31,24,280,13*78\n'
'$GPGSV,4,4,13,32,11,212,*4B\n'
'$GPGLL,0105.71440,S,03700.75435,E,134809.00,A,A*75\n'
'$GPRMC,134810.00,A,0105.71430,S,03700.75394,E,0.988,,210421,,,A*62\n'
'$GPVTG,,T,,M,0.988,N,1.830,K,A*20\n'
'$GPGGA,134810.00,0105.71430,S,03700.75394,E,1,05,2.45,1542.3,M,-22.0,M,,*59\n'
'$GPGSA,A,3,20,25,31,29,18,,,,,,,,4.15,2.45,3.35*01\n'
'$GPGSV,4,1,13,05,01,037,,10,43,203,,12,36,130,,15,20,100,*7A\n'
'$GPGSV,4,2,13,18,39,333,21,20,56,039,38,23,76,175,21,24,07,146,*7C\n'
'$GPGSV,4,3,13,25,74,095,10,26,05,326,18,29,23,022,41,31,24,280,13*79\n'
'$GPGSV,4,4,13,32,11,212,*4B\n'
'$GPGLL,0105.71430,S,03700.75394,E,134810.00,A,A*76\n'
'$GPRMC,134811.00,A,0105.71420,S,03700.75375,E,0.733,,210421,,,A*63\n'
'$GPVTG,,T,,M,0.733,N,1.358,K,A*2B\n'
'$GPGGA,134811.00,0105.71420,S,03700.75375,E,1,05,2.45,1542.3,M,-22.0,M,,*56\n'
'$GPGSA,A,3,20,25,31,29,18,,,,,,,,4.15,2.45,3.35*01\n'
'$GPGSV,4,1,13,05,01,037,,10,43,203,,12,36,130,,15,20,100,*7A\n'
'$GPGSV,4,2,13,18,39,333,22,20,56,039,39,23,76,175,18,24,07,146,*74\n'
'$GPGSV,4,3,13,25,74,095,10,26,05,326,18,29,23,022,41,31,24,280,13*79\n'
'$GPGSV,4,4,13,32,11,212,*4B\n'
'$GPGLL,0105.71420,S,03700.75375,E,134811.00,A,A*79\n'
'$GPRMC,134812.00,A,0105.71411,S,03700.75318,E,0.148,,210421,,,A*63\n'
'$GPVTG,,T,,M,0.148,N,0.274,K,A*2F\n'
'$GPGGA,134812.00,0105.71411,S,03700.75318,E,1,05,2.45,1542.4,M,-22.0,M,,*5B\n'
'$GPGSA,A,3,20,25,31,29,18,,,,,,,,4.15,2.45,3.35*01\n'
'$GPGSV,4,1,13,05,01,037,,10,43,203,,12,36,130,,15,20,100,*7A\n'
'$GPGSV,4,2,13,18,39,333,22,20,56,039,39,23,76,175,12,24,07,146,*7E\n'
'$GPGSV,4,3,13,25,74,095,09,26,05,326,19,29,23,022,41,31,24,280,13*70\n'
'$GPGSV,4,4,13,32,11,212,*4B\n'
'$GPGLL,0105.71411,S,03700.75318,E,134812.00,A,A*73\n'
'$GPRMC,134813.00,A,0105.71406,S,03700.75337,E,0.413,,210421,,,A*62\n'
'$GPVTG,,T,,M,0.413,N,0.764,K,A*20\n'
'$GPGGA,134813.00,0105.71406,S,03700.75337,E,1,05,2.45,1542.4,M,-22.0,M,,*51\n'
'$GPGSA,A,3,20,25,31,29,18,,,,,,,,4.15,2.45,3.35*01\n'
'$GPGSV,4,1,13,05,01,037,,10,43,203,,12,36,130,,15,20,100,*7A\n'
'$GPGSV,4,2,13,18,39,333,22,20,56,039,39,23,76,175,09,24,07,146,*74\n'
'$GPGSV,4,3,13,25,74,095,10,26,05,326,18,29,23,022,40,31,24,280,13*78\n'
'$GPGSV,4,4,13,32,11,212,*4B\n'
'$GPGLL,0105.71406,S,03700.75337,E,134813.00,A,A*79\n'
'$GPRMC,134814.00,A,0105.71400,S,03700.75338,E,0.469,,210421,,,A*61\n'
'$GPVTG,,T,,M,0.469,N,0.869,K,A*2F\n'
'$GPGGA,134814.00,0105.71400,S,03700.75338,E,1,05,2.45,1542.5,M,-22.0,M,,*5E\n'
'$GPGSA,A,3,20,25,31,29,18,,,,,,,,4.15,2.45,3.35*01\n'
'$GPGSV,4,1,13,05,01,037,,10,43,203,,12,36,130,,15,20,100,*7A\n'
'$GPGSV,4,2,13,18,39,333,22,20,56,039,39,23,76,175,,24,07,146,*7D\n'
'$GPGSV,4,3,13,25,74,095,14,26,05,326,19,29,23,022,41,31,24,280,10*7F\n'
'$GPGSV,4,4,13,32,11,212,*4B\n'
'$GPGLL,0105.71400,S,03700.75338,E,134814.00,A,A*77\n'
'$GPRMC,134815.00,A,0105.71392,S,03700.75369,E,0.785,,210421,,,A*69\n'
'$GPVTG,,T,,M,0.785,N,1.455,K,A*2C\n'
'$GPGGA,134815.00,0105.71392,S,03700.75369,E,1,05,2.45,1542.5,M,-22.0,M,,*57\n'
'$GPGSA,A,3,20,25,31,29,18,,,,,,,,4.15,2.45,3.35*01\n'
'$GPGSV,4,1,13,05,01,037,,10,43,203,,12,36,130,,15,20,100,*7A\n'
'$GPGSV,4,2,13,18,39,333,22,20,56,039,39,23,76,175,,24,07,146,*7D\n'
'$GPGSV,4,3,13,25,74,095,14,26,05,326,19,29,23,022,41,31,24,280,10*7F\n'
'$GPGSV,4,4,13,32,11,212,*4B\n'
'$GPGLL,0105.71392,S,03700.75369,E,134815.00,A,A*7E\n'
'$GPRMC,134816.00,A,0105.71383,S,03700.75353,E,0.510,,210421,,,A*6D\n'
'$GPVTG,,T,,M,0.510,N,0.945,K,A*2F\n'
'$GPGGA,134816.00,0105.71383,S,03700.75353,E,1,05,2.45,1542.6,M,-22.0,M,,*5E\n'
'$GPGSA,A,3,20,25,31,29,18,,,,,,,,4.15,2.45,3.35*01\n'
'$GPGSV,4,1,13,05,01,037,,10,43,203,,12,36,130,,15,20,100,*7A\n'
'$GPGSV,4,2,13,18,39,333,21,20,56,039,37,23,76,175,,24,07,146,*70\n'
'$GPGSV,4,3,13,25,74,095,14,26,05,326,18,29,23,022,41,31,24,280,10*7E\n'
'$GPGSV,4,4,13,32,11,212,*4B\n'
'$GPGLL,0105.71383,S,03700.75353,E,134816.00,A,A*74\n'
'$GPRMC,134817.00,A,0105.71386,S,03700.75369,E,0.568,,210421,,,A*6F\n'
'$GPVTG,,T,,M,0.568,N,1.051,K,A*2D\n'
'$GPGGA,134817.00,0105.71386,S,03700.75369,E,1,05,2.45,1542.6,M,-22.0,M,,*53\n'
'$GPGSA,A,3,20,25,31,29,18,,,,,,,,4.15,2.45,3.35*01\n'
'$GPGSV,4,1,13,05,01,037,,10,43,203,,12,36,130,,15,20,100,*7A\n'
'$GPGSV,4,2,13,18,39,333,19,20,56,039,37,23,76,175,,24,07,146,*7B\n'
'$GPGSV,4,3,13,25,74,095,14,26,05,326,19,29,23,022,42,31,24,280,10*7C\n'
'$GPGSV,4,4,13,32,11,212,*4B\n'
'$GPGLL,0105.71386,S,03700.75369,E,134817.00,A,A*79\n'
'$GPRMC,134818.00,A,0105.71395,S,03700.75320,E,0.335,,210421,,,A*61\n'
'$GPVTG,,T,,M,0.335,N,0.620,K,A*22\n'
'$GPGGA,134818.00,0105.71395,S,03700.75320,E,1,05,2.45,1542.6,M,-22.0,M,,*53\n'
'$GPGSA,A,3,20,25,31,29,18,,,,,,,,4.15,2.45,3.35*01\n'
'$GPGSV,4,1,13,05,01,037,,10,43,203,,12,36,130,,15,20,100,*7A\n'
'$GPGSV,4,2,13,18,39,333,15,20,56,039,36,23,76,175,,24,07,146,*76\n'
'$GPGSV,4,3,13,25,74,095,13,26,05,326,19,29,23,022,40,31,24,280,09*71\n'
'$GPGSV,4,4,13,32,11,212,*4B\n'
'$GPGLL,0105.71395,S,03700.75320,E,134818.00,A,A*79\n'
'$GPRMC,134819.00,A,0105.71403,S,03700.75258,E,0.561,,210421,,,A*61\n'
'$GPVTG,,T,,M,0.561,N,1.038,K,A*2B\n'
'$GPGGA,134819.00,0105.71403,S,03700.75258,E,1,05,2.45,1542.5,M,-22.0,M,,*57\n'
'$GPGSA,A,3,20,25,31,29,18,,,,,,,,4.15,2.45,3.35*01\n'
'$GPGSV,4,1,13,05,01,037,,10,43,203,,12,36,130,,15,20,100,*7A\n'
'$GPGSV,4,2,13,18,39,333,13,20,56,039,35,23,76,175,,24,07,146,*73\n'
'$GPGSV,4,3,13,25,74,095,13,26,05,326,20,29,23,022,40,31,24,280,09*7B\n'
'$GPGSV,4,4,13,32,11,212,*4B\n'
'$GPGLL,0105.71403,S,03700.75258,E,134819.00,A,A*7E\n'
'$GPRMC,134820.00,A,0105.71411,S,03700.75227,E,0.651,,210421,,,A*60\n'
'$GPVTG,,T,,M,0.651,N,1.205,K,A*27\n'
'$GPGGA,134820.00,0105.71411,S,03700.75227,E,1,05,2.45,1542.5,M,-22.0,M,,*56\n'
'$GPGSA,A,3,20,25,31,29,18,,,,,,,,4.15,2.45,3.35*01\n'
'$GPGSV,4,1,13,05,01,037,,10,43,203,,12,36,130,,15,20,100,*7A\n'
'$GPGSV,4,2,13,18,39,333,13,20,56,039,36,23,76,175,,24,07,146,*70\n'
'$GPGSV,4,3,13,25,74,095,13,26,05,326,20,29,23,022,41,31,24,280,07*74\n'
'$GPGSV,4,4,13,32,11,212,*4B\n'
'$GPGLL,0105.71411,S,03700.75227,E,134820.00,A,A*7F\n'
'$GPRMC,134821.00,A,0105.71427,S,03700.75161,E,1.099,,210421,,,A*66\n'
'$GPVTG,,T,,M,1.099,N,2.036,K,A*25\n'
'$GPGGA,134821.00,0105.71427,S,03700.75161,E,1,05,2.45,1542.5,M,-22.0,M,,*53\n'
'$GPGSA,A,3,20,25,31,29,18,,,,,,,,4.15,2.45,3.35*01\n'
'$GPGSV,4,1,13,05,01,037,,10,43,203,,12,36,130,,15,20,100,*7A\n'
'$GPGSV,4,2,13,18,39,333,13,20,56,039,36,23,76,175,,24,07,146,*70\n'
'$GPGSV,4,3,13,25,74,095,13,26,05,326,20,29,23,022,41,31,24,280,07*74\n'
'$GPGSV,4,4,13,32,11,212,*4B\n'
'$GPGLL,0105.71427,S,03700.75161,E,134821.00,A,A*7A\n'
'$GPRMC,134822.00,A,0105.71439,S,03700.75058,E,1.686,,210421,,,A*69\n'
'$GPVTG,,T,,M,1.686,N,3.122,K,A*28\n'
'$GPGGA,134822.00,0105.71439,S,03700.75058,E,1,05,2.45,1542.4,M,-22.0,M,,*55\n'
'$GPGSA,A,3,20,25,31,29,18,,,,,,,,4.15,2.45,3.35*01\n'
'$GPGSV,4,1,13,05,01,037,,10,43,203,,12,36,130,,15,20,100,*7A\n'
'$GPGSV,4,2,13,18,39,333,13,20,56,039,36,23,76,175,,24,07,146,*70\n'
'$GPGSV,4,3,13,25,74,095,13,26,05,326,20,29,23,022,41,31,24,280,07*74\n'
'$GPGSV,4,4,13,32,11,212,*4B\n'
'$GPGLL,0105.71439,S,03700.75058,E,134822.00,A,A*7D\n'
'$GPRMC,134823.00,A,0105.71453,S,03700.75027,E,1.475,,210421,,,A*62\n'
'$GPVTG,,T,,M,1.475,N,2.731,K,A*23\n'
'$GPGGA,134823.00,0105.71453,S,03700.75027,E,1,05,2.45,1542.4,M,-22.0,M,,*50\n'
'$GPGSA,A,3,20,25,31,29,18,,,,,,,,4.15,2.45,3.35*01\n'
'$GPGSV,4,1,13,05,01,037,,10,43,203,,12,36,130,,15,20,100,*7A\n'
'$GPGSV,4,2,13,18,39,333,10,20,56,039,36,23,76,175,,24,07,146,*73\n'
'$GPGSV,4,3,13,25,74,095,13,26,05,326,21,29,23,022,41,31,24,280,07*75\n'
'$GPGSV,4,4,13,32,11,212,*4B\n'
'$GPGLL,0105.71453,S,03700.75027,E,134823.00,A,A*78\n'
'$GPRMC,134824.00,A,0105.71460,S,03700.74964,E,1.480,,210421,,,A*60\n'
'$GPVTG,,T,,M,1.480,N,2.741,K,A*2E\n'
'$GPGGA,134824.00,0105.71460,S,03700.74964,E,1,04,6.39,1542.4,M,-22.0,M,,*56\n'
'$GPGSA,A,3,20,25,31,29,,,,,,,,,10.03,6.39,7.73*33\n'
'$GPGSV,4,1,13,05,01,037,,10,43,203,,12,36,130,,15,20,100,*7A\n'
'$GPGSV,4,2,13,18,39,333,,20,56,039,33,23,76,175,,24,07,146,*77\n'
'$GPGSV,4,3,13,25,74,095,13,26,05,326,20,29,23,022,39,31,24,280,07*7B\n'
'$GPGSV,4,4,13,32,11,212,*4B\n'
'$GPGLL,0105.71460,S,03700.74964,E,134824.00,A,A*70\n'
'$GPRMC,134825.00,A,0105.71463,S,03700.74945,E,1.240,,210421,,,A*6B\n'
'$GPVTG,,T,,M,1.240,N,2.297,K,A*2A\n'
'$GPGGA,134825.00,0105.71463,S,03700.74945,E,1,04,6.38,1542.4,M,-22.0,M,,*56\n'
'$GPGSA,A,3,20,25,31,29,,,,,,,,,10.02,6.38,7.73*33\n'
'$GPGSV,4,1,13,05,01,037,,10,43,203,,12,36,130,,15,20,100,*7A\n'
'$GPGSV,4,2,13,18,39,333,,20,56,039,34,23,76,175,,24,07,146,*70\n'
'$GPGSV,4,3,13,25,74,095,14,26,05,326,20,29,23,022,41,31,24,280,07*73\n'
'$GPGSV,4,4,13,32,11,212,*4B\n'
'$GPGLL,0105.71463,S,03700.74945,E,134825.00,A,A*71\n'
'$GPRMC,134826.00,A,0105.71472,S,03700.74857,E,1.618,,210421,,,A*63\n'
'$GPVTG,,T,,M,1.618,N,2.997,K,A*28\n'
'$GPGGA,134826.00,0105.71472,S,03700.74857,E,1,04,6.38,1542.3,M,-22.0,M,,*50\n'
'$GPGSA,A,3,20,25,31,29,,,,,,,,,10.02,6.38,7.72*32\n'
'$GPGSV,4,1,13,05,01,037,,10,43,203,,12,36,130,,15,20,100,*7A\n'
'$GPGSV,4,2,13,18,39,333,,20,56,039,35,23,76,175,,24,07,146,*71\n'
'$GPGSV,4,3,13,25,74,095,11,26,05,326,20,29,23,022,41,31,24,280,10*70\n'
'$GPGSV,4,4,13,32,11,212,*4B\n'
'$GPGLL,0105.71472,S,03700.74857,E,134826.00,A,A*70\n'
'$GPRMC,134827.00,A,0105.71484,S,03700.74766,E,1.877,161.32,210421,,,A*78\n'
'$GPVTG,161.32,T,,M,1.877,N,3.476,K,A*35\n'
'$GPGGA,134827.00,0105.71484,S,03700.74766,E,1,04,6.37,1542.3,M,-22.0,M,,*5A\n'
'$GPGSA,A,3,20,25,31,29,,,,,,,,,10.01,6.37,7.72*3E\n'
'$GPGSV,4,1,13,05,01,037,,10,43,203,,12,36,130,,15,20,100,*7A\n'
'$GPGSV,4,2,13,18,39,333,,20,56,039,35,23,76,175,,24,07,146,*71\n'
'$GPGSV,4,3,13,25,74,095,11,26,05,326,19,29,23,022,41,31,24,280,10*7A\n'
'$GPGSV,4,4,13,32,11,212,*4B\n'
'$GPGLL,0105.71484,S,03700.74766,E,134827.00,A,A*75\n'
'$GPRMC,134828.00,A,0105.71497,S,03700.74721,E,1.670,,210421,,,A*66\n'
'$GPVTG,,T,,M,1.670,N,3.092,K,A*2B\n'
'$GPGGA,134828.00,0105.71497,S,03700.74721,E,1,04,6.37,1542.3,M,-22.0,M,,*54\n'
'$GPGSA,A,3,20,25,31,29,,,,,,,,,10.00,6.37,7.71*3C\n'
'$GPGSV,4,1,13,05,01,037,,10,43,203,,12,36,130,,15,20,100,*7A\n'
'$GPGSV,4,2,13,18,39,333,,20,56,039,35,23,76,175,,24,07,146,*71\n'
'$GPGSV,4,3,13,25,74,095,11,26,05,326,19,29,23,022,40,31,24,280,10*7B\n'
'$GPGSV,4,4,13,32,11,212,*4B\n'
'$GPGLL,0105.71497,S,03700.74721,E,134828.00,A,A*7B\n'
'$GPRMC,134829.00,A,0105.71508,S,03700.74695,E,1.388,,210421,,,A*6C\n'
'$GPVTG,,T,,M,1.388,N,2.570,K,A*21\n'
'$GPGGA,134829.00,0105.71508,S,03700.74695,E,1,04,6.36,1542.2,M,-22.0,M,,*5C\n'
'$GPGSA,A,3,20,25,31,29,,,,,,,,,10.00,6.36,7.71*3D\n'
'$GPGSV,4,1,13,05,01,037,,10,43,203,,12,36,130,,15,20,100,*7A\n'
'$GPGSV,4,2,13,18,39,333,,20,56,039,35,23,76,175,,24,07,146,*71\n'
'$GPGSV,4,3,13,25,74,095,11,26,05,326,20,29,23,022,40,31,24,280,10*71\n'
'$GPGSV,4,4,13,32,11,212,*4B\n'
'$GPGLL,0105.71508,S,03700.74695,E,134829.00,A,A*73\n'
'$GPRMC,134830.00,A,0105.71522,S,03700.74639,E,1.448,,210421,,,A*61\n'
'$GPVTG,,T,,M,1.448,N,2.682,K,A*24\n'
'$GPGGA,134830.00,0105.71522,S,03700.74639,E,1,05,6.36,1542.2,M,-22.0,M,,*5B\n'
'$GPGSA,A,3,20,25,31,29,18,,,,,,,,9.99,6.36,7.71*0C\n'
'$GPGSV,4,1,13,05,01,037,,10,43,203,,12,36,130,,15,20,100,*7A\n'
'$GPGSV,4,2,13,18,39,333,17,20,56,039,35,23,76,175,,24,07,146,*77\n'
'$GPGSV,4,3,13,25,74,095,11,26,05,326,20,29,23,022,40,31,24,280,10*71\n'
'$GPGSV,4,4,13,32,11,212,*4B\n'
'$GPGLL,0105.71522,S,03700.74639,E,134830.00,A,A*75\n'
'$GPRMC,134831.00,V,,,,,,,210421,,,N*75\n'
'$GPVTG,,,,,,,,,N*30\n'
'$GPGGA,134831.00,,,,,0,04,35.30,,,,,,*6B\n'
'$GPGSA,A,1,20,25,29,18,,,,,,,,,35.31,35.30,1.00*07\n'
'$GPGSV,4,1,13,05,01,037,,10,43,203,,12,36,130,,15,20,100,*7A\n'
'$GPGSV,4,2,13,18,39,333,16,20,56,039,35,23,76,175,,24,07,146,*76\n'
'$GPGSV,4,3,13,25,74,095,11,26,05,326,19,29,23,022,40,31,24,280,*7A\n'
'$GPGSV,4,4,13,32,11,212,*4B\n'
'$GPGLL,,,,,134831.00,V,N*46\n'
'$GPRMC,134832.00,V,,,,,,,210421,,,N*76\n'
'$GPVTG,,,,,,,,,N*30\n'
'$GPGGA,134832.00,,,,,0,04,35.37,,,,,,*6F\n'
'$GPGSA,A,1,20,25,29,18,,,,,,,,,35.39,35.37,1.00*08\n'
'$GPGSV,4,1,13,05,01,037,,10,43,203,,12,36,130,,15,20,100,*7A\n'
'$GPGSV,4,2,13,18,39,333,16,20,56,039,35,23,76,175,,24,07,146,*76\n'
'$GPGSV,4,3,13,25,74,095,17,26,05,326,19,29,23,022,40,31,24,280,*7C\n'
'$GPGSV,4,4,13,32,11,212,*4B\n'
'$GPGLL,,,,,134832.00,V,N*45\n'
'$GPRMC,134833.00,V,,,,,,,210421,,,N*77\n'
'$GPVTG,,,,,,,,,N*30\n'
'$GPGGA,134833.00,,,,,0,04,35.45,,,,,,*6B\n'
'$GPGSA,A,1,20,25,29,18,,,,,,,,,35.46,35.45,1.00*05\n'
'$GPGSV,4,1,13,05,01,037,,10,43,203,,12,36,130,,15,20,100,*7A\n'
'$GPGSV,4,2,13,18,39,333,13,20,56,039,35,23,76,175,,24,07,146,*73\n'
'$GPGSV,4,3,13,25,74,095,17,26,05,326,19,29,23,022,40,31,24,280,*7C\n'
'$GPGSV,4,4,13,32,11,212,*4B\n'
'$GPGLL,,,,,134833.00,V,N*44\n'
'$GPRMC,134834.00,A,0105.71513,S,03700.74436,E,1.396,,210421,,,A*6E\n'
'$GPVTG,,T,,M,1.396,N,2.585,K,A*24\n'
'$GPGGA,134834.00,0105.71513,S,03700.74436,E,1,04,4.96,1542.3,M,-22.0,M,,*58\n'
'$GPGSA,A,3,20,25,29,18,,,,,,,,,8.49,4.96,6.90*04\n'
'$GPGSV,4,1,13,05,01,037,,10,43,203,,12,36,130,,15,20,100,*7A\n'
'$GPGSV,4,2,13,18,39,333,13,20,56,039,35,23,76,175,,24,07,146,*73\n'
'$GPGSV,4,3,13,25,74,095,17,26,05,326,19,29,23,022,40,31,24,280,*7C\n'
'$GPGSV,4,4,13,32,11,212,*4B\n'
'$GPGLL,0105.71513,S,03700.74436,E,134834.00,A,A*7E\n'
'$GPRMC,134835.00,A,0105.71497,S,03700.74400,E,1.203,,210421,,,A*6A\n'
'$GPVTG,,T,,M,1.203,N,2.227,K,A*26\n'
'$GPGGA,134835.00,0105.71497,S,03700.74400,E,1,04,4.95,1542.3,M,-22.0,M,,*52\n'
'$GPGSA,A,3,20,25,29,18,,,,,,,,,8.49,4.95,6.89*0F\n'
'$GPGSV,4,1,13,05,01,037,,10,43,203,,12,36,130,,15,20,100,*7A\n'
'$GPGSV,4,2,13,18,39,333,16,20,56,039,35,23,76,175,,24,07,146,*76\n'
'$GPGSV,4,3,13,25,74,095,17,26,05,326,19,29,23,022,40,31,24,280,*7C\n'
'$GPGSV,4,4,13,32,11,212,*4B\n'
'$GPGLL,0105.71497,S,03700.74400,E,134835.00,A,A*77\n'
'$GPRMC,134836.00,A,0105.71486,S,03700.74214,E,1.663,,210421,,,A*68\n'
'$GPVTG,,T,,M,1.663,N,3.079,K,A*2C\n'
'$GPGGA,134836.00,0105.71486,S,03700.74214,E,1,04,4.95,1542.4,M,-22.0,M,,*55\n'
'$GPGSA,A,3,20,25,29,18,,,,,,,,,8.49,4.95,6.89*0F\n'
'$GPGSV,4,1,13,05,01,037,,10,43,203,,12,36,130,,15,20,100,*7A\n'
'$GPGSV,4,2,13,18,39,333,18,20,56,039,35,23,76,175,,24,07,146,*78\n'
'$GPGSV,4,3,13,25,74,095,13,26,05,326,18,29,23,022,39,31,24,280,*77\n'
'$GPGSV,4,4,13,32,11,212,*4B\n'
'$GPGLL,0105.71486,S,03700.74214,E,134836.00,A,A*77\n'
'$GPRMC,134837.00,A,0105.71479,S,03700.74140,E,1.414,,210421,,,A*69\n'
'$GPVTG,,T,,M,1.414,N,2.618,K,A*2E\n'
'$GPGGA,134837.00,0105.71479,S,03700.74140,E,1,04,4.95,1542.4,M,-22.0,M,,*56\n'
'$GPGSA,A,3,20,25,29,18,,,,,,,,,8.48,4.95,6.89*0E\n'
'$GPGSV,4,1,13,05,01,037,,10,43,203,,12,36,130,,15,20,100,*7A\n'
'$GPGSV,4,2,13,18,39,333,19,20,56,039,38,23,76,175,,24,07,146,*74\n'
'$GPGSV,4,3,13,25,74,095,19,26,05,326,18,29,23,022,41,31,24,280,*72\n'
'$GPGSV,4,4,13,32,11,212,*4B\n'
'$GPGLL,0105.71479,S,03700.74140,E,134837.00,A,A*74\n'
'$GPRMC,134838.00,A,0105.71471,S,03700.74063,E,1.345,,210421,,,A*6D\n'
'$GPVTG,,T,,M,1.345,N,2.491,K,A*2E\n'
'$GPGGA,134838.00,0105.71471,S,03700.74063,E,1,04,4.95,1542.4,M,-22.0,M,,*51\n'
'$GPGSA,A,3,20,25,29,18,,,,,,,,,8.48,4.95,6.89*0E\n'
'$GPGSV,4,1,13,05,01,037,,10,44,204,,12,36,130,,15,20,100,*7A\n'
'$GPGSV,4,2,13,18,39,333,21,20,56,039,38,23,76,175,,24,07,146,*7F\n'
'$GPGSV,4,3,13,25,74,095,22,26,05,326,18,29,23,022,41,31,24,280,*7A\n'
'$GPGSV,4,4,13,32,11,212,*4B\n'
'$GPGLL,0105.71471,S,03700.74063,E,134838.00,A,A*73\n'
'$GPRMC,134839.00,A,0105.71460,S,03700.74006,E,1.286,,210421,,,A*61\n'
'$GPVTG,,T,,M,1.286,N,2.382,K,A*25\n'
'$GPGGA,134839.00,0105.71460,S,03700.74006,E,1,04,4.94,1542.4,M,-22.0,M,,*52\n'
'$GPGSA,A,3,20,25,29,18,,,,,,,,,8.48,4.94,6.89*0F\n'
'$GPGSV,4,1,13,05,01,037,,10,44,204,,12,36,130,,15,20,100,*7A\n'
'$GPGSV,4,2,13,18,39,333,21,20,56,039,37,23,76,175,,24,07,146,*70\n'
'$GPGSV,4,3,13,25,74,095,22,26,05,326,18,29,23,022,40,31,24,280,*7B\n'
'$GPGSV,4,4,13,32,11,212,*4B\n'
'$GPGLL,0105.71460,S,03700.74006,E,134839.00,A,A*71\n'
'$GPRMC,134840.00,A,0105.71445,S,03700.73986,E,1.110,,210421,,,A*62\n'
'$GPVTG,,T,,M,1.110,N,2.055,K,A*20\n'
'$GPGGA,134840.00,0105.71445,S,03700.73986,E,1,04,4.94,1542.5,M,-22.0,M,,*5C\n'
'$GPGSA,A,3,20,25,29,18,,,,,,,,,8.47,4.94,6.88*01\n'
'$GPGSV,4,1,13,05,01,037,,10,44,204,,12,36,131,,15,20,100,*7B\n'
'$GPGSV,4,2,13,18,39,333,22,20,56,039,37,23,76,175,,24,07,146,*73\n'
'$GPGSV,4,3,13,25,74,095,22,26,05,326,18,29,23,022,41,31,24,280,*7A\n'
'$GPGSV,4,4,13,32,11,212,*4B\n'
'$GPGLL,0105.71445,S,03700.73986,E,134840.00,A,A*7E\n'
'$GPRMC,134841.00,A,0105.71431,S,03700.73994,E,0.810,,210421,,,A*6B\n'
'$GPVTG,,T,,M,0.810,N,1.501,K,A*2F\n'
'$GPGGA,134841.00,0105.71431,S,03700.73994,E,1,04,4.94,1542.5,M,-22.0,M,,*5D\n'
'$GPGSA,A,3,20,25,29,18,,,,,,,,,8.47,4.94,6.88*01\n'
'$GPGSV,4,1,13,05,01,037,,10,44,204,,12,36,131,,15,20,100,*7B\n'
'$GPGSV,4,2,13,18,39,333,23,20,56,039,37,23,76,175,,24,07,146,*72\n'
'$GPGSV,4,3,13,25,74,095,22,26,05,326,18,29,23,022,40,31,24,280,*7B\n'
'$GPGSV,4,4,13,32,11,212,*4B\n'
'$GPGLL,0105.71431,S,03700.73994,E,134841.00,A,A*7F\n'
'$GPRMC,134842.00,A,0105.71416,S,03700.74012,E,0.533,,210421,,,A*61\n'
'$GPVTG,,T,,M,0.533,N,0.987,K,A*20\n'
'$GPGGA,134842.00,0105.71416,S,03700.74012,E,1,04,4.94,1542.5,M,-22.0,M,,*5B\n'
'$GPGSA,A,3,20,25,29,18,,,,,,,,,8.47,4.94,6.88*01\n'
'$GPGSV,4,1,13,05,01,037,,10,44,204,,12,36,131,,15,20,100,*7B\n'
'$GPGSV,4,2,13,18,39,333,22,20,56,039,37,23,76,175,,24,07,146,*73\n'
'$GPGSV,4,3,13,25,74,095,22,26,05,326,18,29,23,022,37,31,24,280,*7B\n'
'$GPGSV,4,4,13,32,11,212,*4B\n'
'$GPGLL,0105.71416,S,03700.74012,E,134842.00,A,A*79\n'
'$GPRMC,134843.00,A,0105.71404,S,03700.74060,E,0.164,,210421,,,A*60\n'
'$GPVTG,,T,,M,0.164,N,0.304,K,A*27\n'
'$GPGGA,134843.00,0105.71404,S,03700.74060,E,1,04,4.93,1542.5,M,-22.0,M,,*5B\n'
'$GPGSA,A,3,20,25,29,18,,,,,,,,,8.46,4.93,6.88*07\n'
'$GPGSV,4,1,13,05,01,037,,10,44,204,,12,36,131,,15,20,100,*7B\n'
'$GPGSV,4,2,13,18,39,333,22,20,56,039,38,23,76,175,,24,07,146,*7C\n'
'$GPGSV,4,3,13,25,74,095,22,26,05,326,18,29,23,022,41,31,24,280,*7A\n'
'$GPGSV,4,4,13,32,11,212,*4B\n'
'$GPGLL,0105.71404,S,03700.74060,E,134843.00,A,A*7E\n'
'$GPRMC,134844.00,A,0105.71390,S,03700.74123,E,0.405,,210421,,,A*69\n'
'$GPVTG,,T,,M,0.405,N,0.750,K,A*20\n'
'$GPGGA,134844.00,0105.71390,S,03700.74123,E,1,04,4.93,1542.6,M,-22.0,M,,*53\n'
'$GPGSA,A,3,20,25,29,18,,,,,,,,,8.46,4.93,6.88*07\n'
'$GPGSV,4,1,13,05,01,037,,10,44,204,,12,36,131,,15,20,100,*7B\n'
'$GPGSV,4,2,13,18,39,333,21,20,56,039,38,23,76,175,,24,07,146,*7F\n'
'$GPGSV,4,3,13,25,74,095,22,26,05,326,18,29,23,022,42,31,24,280,*79\n'
'$GPGSV,4,4,13,32,11,212,*4B\n'
'$GPGLL,0105.71390,S,03700.74123,E,134844.00,A,A*75\n'
'$GPRMC,134845.00,A,0105.71380,S,03700.74093,E,0.200,,210421,,,A*60\n'
'$GPVTG,,T,,M,0.200,N,0.370,K,A*25\n'
'$GPGGA,134845.00,0105.71380,S,03700.74093,E,1,04,4.93,1542.6,M,-22.0,M,,*59\n'
'$GPGSA,A,3,20,25,29,18,,,,,,,,,8.46,4.93,6.87*08\n'
'$GPGSV,4,1,13,05,01,037,,10,44,204,,12,36,131,,15,20,100,*7B\n'
'$GPGSV,4,2,13,18,39,333,22,20,56,039,39,23,76,175,,24,07,146,*7D\n'
'$GPGSV,4,3,13,25,74,095,23,26,05,326,19,29,23,022,42,31,24,280,*79\n'
'$GPGSV,4,4,13,32,11,212,*4B\n'
'$GPGLL,0105.71380,S,03700.74093,E,134845.00,A,A*7F\n'
'$GPRMC,134846.00,A,0105.71372,S,03700.74086,E,0.163,,210421,,,A*6C\n'
'$GPVTG,,T,,M,0.163,N,0.301,K,A*25\n'
'$GPGGA,134846.00,0105.71372,S,03700.74086,E,1,04,4.93,1542.6,M,-22.0,M,,*53\n'
'$GPGSA,A,3,20,25,29,18,,,,,,,,,8.46,4.93,6.87*08\n'
'$GPGSV,4,1,13,05,01,037,,10,44,204,,12,36,131,19,15,20,100,*73\n'
'$GPGSV,4,2,13,18,39,334,22,20,56,039,39,23,76,175,,24,07,146,*7A\n'
'$GPGSV,4,3,13,25,74,095,22,26,05,326,18,29,23,022,42,31,24,280,*79\n'
'$GPGSV,4,4,13,32,11,212,*4B\n'
'$GPGLL,0105.71372,S,03700.74086,E,134846.00,A,A*75\n'
'$GPRMC,134847.00,A,0105.71360,S,03700.74091,E,0.131,,210421,,,A*6F\n'
'$GPVTG,,T,,M,0.131,N,0.243,K,A*25\n'
'$GPGGA,134847.00,0105.71360,S,03700.74091,E,1,04,4.93,1542.6,M,-22.0,M,,*57\n'
'$GPGSA,A,3,20,25,29,18,,,,,,,,,8.45,4.93,6.87*0B\n'
'$GPGSV,4,1,13,05,01,037,,10,44,204,,12,36,131,17,15,20,100,*7D\n'
'$GPGSV,4,2,13,18,39,334,23,20,56,039,39,23,76,175,,24,07,146,*7B\n'
'$GPGSV,4,3,13,25,74,095,23,26,05,326,18,29,23,022,42,31,24,280,*78\n'
'$GPGSV,4,4,13,32,11,212,*4B\n'
'$GPGLL,0105.71360,S,03700.74091,E,134847.00,A,A*71\n'
'$GPRMC,134848.00,A,0105.71352,S,03700.74086,E,0.067,,210421,,,A*65\n'
'$GPVTG,,T,,M,0.067,N,0.123,K,A*22\n'
'$GPGGA,134848.00,0105.71352,S,03700.74086,E,1,04,4.92,1542.6,M,-22.0,M,,*5E\n'
'$GPGSA,A,3,20,25,29,18,,,,,,,,,8.45,4.92,6.87*0A\n'
'$GPGSV,4,1,13,05,01,037,,10,44,204,,12,36,131,15,15,20,100,*7F\n'
'$GPGSV,4,2,13,18,39,334,23,20,55,038,37,23,76,175,,24,07,146,*77\n'
'$GPGSV,4,3,13,25,74,095,22,26,05,326,17,29,23,022,41,31,24,280,*75\n'
'$GPGSV,4,4,13,32,11,212,*4B\n'
'$GPGLL,0105.71352,S,03700.74086,E,134848.00,A,A*79\n'
'$GPRMC,134849.00,A,0105.71345,S,03700.74182,E,0.684,,210421,,,A*6C\n'
'$GPVTG,,T,,M,0.684,N,1.267,K,A*2B\n'
'$GPGGA,134849.00,0105.71345,S,03700.74182,E,1,04,4.92,1542.6,M,-22.0,M,,*5C\n'
'$GPGSA,A,3,20,25,29,18,,,,,,,,,8.45,4.92,6.87*0A\n'
'$GPGSV,4,1,13,05,01,037,,10,44,204,,12,36,131,16,15,20,100,*7C\n'
'$GPGSV,4,2,13,18,39,334,21,20,55,038,39,23,76,175,,24,07,146,*7B\n'
'$GPGSV,4,3,13,25,74,095,21,26,05,326,18,29,23,022,43,31,24,280,*7B\n'
'$GPGSV,4,4,13,32,11,212,*4B\n'
'$GPGLL,0105.71345,S,03700.74182,E,134849.00,A,A*7B\n'
'$GPRMC,134850.00,A,0105.71341,S,03700.74194,E,0.647,,210421,,,A*68\n'
'$GPVTG,,T,,M,0.647,N,1.198,K,A*27\n'
'$GPGGA,134850.00,0105.71341,S,03700.74194,E,1,04,4.92,1542.6,M,-22.0,M,,*57\n'
'$GPGSA,A,3,20,25,29,18,,,,,,,,,8.44,4.92,6.86*0A\n'
'$GPGSV,4,1,13,05,01,037,,10,44,204,,12,36,131,15,15,20,100,*7F\n'
'$GPGSV,4,2,13,18,39,334,19,20,55,038,40,23,76,175,,24,07,146,*7E\n'
'$GPGSV,4,3,13,25,74,095,20,26,05,326,19,29,23,022,43,31,24,280,*7B\n'
'$GPGSV,4,4,13,32,11,212,*4B\n'
'$GPGLL,0105.71341,S,03700.74194,E,134850.00,A,A*70\n'
'$GPRMC,134851.00,A,0105.71334,S,03700.74116,E,0.070,,210421,,,A*63\n'
'$GPVTG,,T,,M,0.070,N,0.130,K,A*26\n'
'$GPGGA,134851.00,0105.71334,S,03700.74116,E,1,04,4.92,1542.7,M,-22.0,M,,*5F\n'
'$GPGSA,A,3,20,25,29,18,,,,,,,,,8.44,4.92,6.86*0A\n'
'$GPGSV,4,1,13,05,01,037,,10,44,204,,12,36,131,14,15,20,100,*7E\n'
'$GPGSV,4,2,13,18,39,334,18,20,55,038,40,23,76,175,,24,07,146,*7F\n'
'$GPGSV,4,3,13,25,74,095,22,26,05,326,20,29,23,022,43,31,24,280,*73\n'
'$GPGSV,4,4,13,32,11,212,*4B\n'
'$GPGLL,0105.71334,S,03700.74116,E,134851.00,A,A*79\n'
'$GPRMC,134852.00,A,0105.71327,S,03700.74046,E,0.583,,210421,,,A*6F\n'
'$GPVTG,,T,,M,0.583,N,1.080,K,A*24\n'
'$GPGGA,134852.00,0105.71327,S,03700.74046,E,1,04,4.91,1542.7,M,-22.0,M,,*59\n'
'$GPGSA,A,3,20,25,29,18,,,,,,,,,8.44,4.91,6.86*09\n'
'$GPGSV,4,1,13,05,01,037,,10,44,204,,12,36,131,16,15,20,100,*7C\n'
'$GPGSV,4,2,13,18,39,334,15,20,55,038,40,23,76,175,,24,06,145,*70\n'
'$GPGSV,4,3,13,25,74,095,22,26,05,326,20,29,23,022,43,31,24,280,*73\n'
'$GPGSV,4,4,13,32,11,212,*4B\n'
'$GPGLL,0105.71327,S,03700.74046,E,134852.00,A,A*7C\n'
'$GPRMC,134853.00,A,0105.71321,S,03700.73928,E,1.301,,210421,,,A*63\n'
'$GPVTG,,T,,M,1.301,N,2.409,K,A*2F\n'
'$GPGGA,134853.00,0105.71321,S,03700.73928,E,1,04,4.91,1542.7,M,-22.0,M,,*58\n'
'$GPGSA,A,3,20,25,29,18,,,,,,,,,8.43,4.91,6.86*0E\n'
'$GPGSV,4,1,13,05,01,037,,10,44,204,,12,36,131,17,15,20,100,*7D\n'
'$GPGSV,4,2,13,18,39,334,15,20,55,038,37,23,76,175,,24,06,145,*70\n'
'$GPGSV,4,3,13,25,74,098,20,26,05,326,19,29,23,022,40,31,24,280,06*73\n'
'$GPGSV,4,4,13,32,11,212,*4B\n'
'$GPGLL,0105.71321,S,03700.73928,E,134853.00,A,A*7D\n'
'$GPRMC,134854.00,A,0105.71315,S,03700.73787,E,1.985,228.96,210421,,,A*77\n'
'$GPVTG,228.96,T,,M,1.985,N,3.675,K,A*38\n'
'$GPGGA,134854.00,0105.71315,S,03700.73787,E,1,04,4.91,1542.7,M,-22.0,M,,*53\n'
'$GPGSA,A,3,20,25,29,18,,,,,,,,,8.43,4.91,6.86*0E\n'
'$GPGSV,4,1,13,05,01,037,,10,44,204,,12,36,131,17,15,20,100,*7D\n'
'$GPGSV,4,2,13,18,39,334,13,20,55,038,41,23,76,175,,24,06,145,*77\n'
'$GPGSV,4,3,13,25,74,098,19,26,06,326,19,29,23,022,40,31,24,280,08*74\n'
'$GPGSV,4,4,13,32,11,212,*4B\n'
'$GPGLL,0105.71315,S,03700.73787,E,134854.00,A,A*76\n'
'$GPRMC,134855.00,V,,,,,,,210421,,,N*77\n'
'$GPVTG,,,,,,,,,N*30\n'
'$GPGGA,134855.00,,,,,0,05,37.23,,,,,,*68\n'
'$GPGSA,A,1,20,25,31,29,18,,,,,,,,37.24,37.23,1.00*03\n'
'$GPGSV,4,1,13,05,01,037,,10,44,204,,12,36,131,18,15,20,100,*72\n'
'$GPGSV,4,2,13,18,39,334,25,20,55,038,42,23,76,175,,24,06,145,*71\n'
'$GPGSV,4,3,13,25,74,098,22,26,06,326,21,29,23,022,43,31,24,280,10*7D\n'
'$GPGSV,4,4,13,32,11,212,*4B\n'
'$GPGLL,,,,,134855.00,V,N*44\n'
'$GPRMC,134856.00,A,0105.71307,S,03700.73844,E,1.214,,210421,,,A*6C\n'
'$GPVTG,,T,,M,1.214,N,2.249,K,A*28\n'
'$GPGGA,134856.00,0105.71307,S,03700.73844,E,1,04,4.90,1542.7,M,-22.0,M,,*53\n'
'$GPGSA,A,3,20,25,29,18,,,,,,,,,8.43,4.90,6.85*0C\n'
'$GPGSV,4,1,13,05,01,037,,10,44,204,,12,36,131,17,15,20,100,*7D\n'
'$GPGSV,4,2,13,18,39,334,27,20,55,038,42,23,76,175,,24,06,145,*73\n'
'$GPGSV,4,3,13,25,74,098,24,26,06,326,22,29,23,022,42,31,24,280,09*71\n'
'$GPGSV,4,4,13,32,11,212,*4B\n'
'$GPGLL,0105.71307,S,03700.73844,E,134856.00,A,A*77\n'
'$GPRMC,134857.00,A,0105.71304,S,03700.73906,E,0.787,,210421,,,A*67\n'
'$GPVTG,,T,,M,0.787,N,1.457,K,A*2C\n'
'$GPGGA,134857.00,0105.71304,S,03700.73906,E,1,04,4.90,1542.7,M,-22.0,M,,*56\n'
'$GPGSA,A,3,20,25,29,18,,,,,,,,,8.42,4.90,6.85*0D\n'
'$GPGSV,4,1,13,05,01,037,,10,44,204,19,12,36,131,17,15,20,100,*75\n'
'$GPGSV,4,2,13,18,39,334,28,20,55,038,42,23,76,175,,24,06,145,*7C\n'
'$GPGSV,4,3,13,25,74,098,24,26,06,326,23,29,23,022,42,31,24,280,09*70\n'
'$GPGSV,4,4,13,32,11,212,*4B\n'
'$GPGLL,0105.71304,S,03700.73906,E,134857.00,A,A*72\n'
'$GPRMC,134858.00,A,0105.71304,S,03700.73978,E,0.554,,210421,,,A*6D\n'
'$GPVTG,,T,,M,0.554,N,1.027,K,A*23\n'
'$GPGGA,134858.00,0105.71304,S,03700.73978,E,1,04,4.90,1542.7,M,-22.0,M,,*50\n'
'$GPGSA,A,3,20,25,29,18,,,,,,,,,8.42,4.90,6.85*0D\n'
'$GPGSV,4,1,13,05,01,037,,10,44,204,20,12,36,131,17,15,20,100,*7F\n'
'$GPGSV,4,2,13,18,39,334,28,20,55,038,42,23,76,175,,24,06,145,*7C\n'
'$GPGSV,4,3,13,25,74,098,24,26,06,326,23,29,23,022,42,31,24,280,09*70\n'
'$GPGSV,4,4,13,32,11,212,*4B\n'
'$GPGLL,0105.71304,S,03700.73978,E,134858.00,A,A*74\n'
'$GPRMC,134859.00,A,0105.71300,S,03700.73981,E,0.225,,210421,,,A*6F\n'
'$GPVTG,,T,,M,0.225,N,0.417,K,A*24\n'
'$GPGGA,134859.00,0105.71300,S,03700.73981,E,1,04,4.90,1542.7,M,-22.0,M,,*53\n'
'$GPGSA,A,3,20,25,29,18,,,,,,,,,8.42,4.90,6.85*0D\n'
'$GPGSV,4,1,13,05,01,037,,10,44,204,20,12,36,131,17,15,20,100,*7F\n'
'$GPGSV,4,2,13,18,39,334,28,20,55,038,39,23,76,175,,24,06,145,*70\n'
'$GPGSV,4,3,13,25,74,098,22,26,06,326,23,29,23,022,39,31,24,279,09*7C\n'
'$GPGSV,4,4,13,32,11,212,*4B\n'
'$GPGLL,0105.71300,S,03700.73981,E,134859.00,A,A*77\n'
'$GPRMC,134900.00,A,0105.71304,S,03700.73905,E,0.627,,210421,,,A*6C\n'
'$GPVTG,,T,,M,0.627,N,1.162,K,A*24\n'
'$GPGGA,134900.00,0105.71304,S,03700.73905,E,1,05,2.43,1542.7,M,-22.0,M,,*5F\n'
'$GPGSA,A,3,20,25,31,29,18,,,,,,,,4.14,2.43,3.35*06\n'
'$GPGSV,4,1,13,05,01,037,,10,44,204,20,12,36,131,17,15,20,100,*7F\n'
'$GPGSV,4,2,13,18,39,334,28,20,55,038,40,23,76,175,,24,06,145,*7E\n'
'$GPGSV,4,3,13,25,74,098,21,26,06,326,22,29,23,022,40,31,24,279,10*78\n'
'$GPGSV,4,4,13,32,11,211,*48\n'
'$GPGLL,0105.71304,S,03700.73905,E,134900.00,A,A*72\n'
'$GPRMC,134901.00,A,0105.71305,S,03700.73844,E,0.778,,210421,,,A*63\n'
'$GPVTG,,T,,M,0.778,N,1.442,K,A*28\n'
'$GPGGA,134901.00,0105.71305,S,03700.73844,E,1,05,2.43,1542.6,M,-22.0,M,,*5A\n'
'$GPGSA,A,3,20,25,31,29,18,,,,,,,,4.14,2.43,3.35*06\n'
'$GPGSV,4,1,13,05,01,037,,10,44,204,21,12,36,131,17,15,20,100,*7E\n'
'$GPGSV,4,2,13,18,39,334,28,20,55,038,42,23,76,175,,24,06,145,*7C\n'
'$GPGSV,4,3,13,25,74,098,20,26,06,326,22,29,23,022,42,31,24,279,12*79\n'
'$GPGSV,4,4,13,32,11,211,*48\n'
'$GPGLL,0105.71305,S,03700.73844,E,134901.00,A,A*76\n'
'$GPRMC,134902.00,A,0105.71300,S,03700.73848,E,0.639,,210421,,,A*6D\n'
'$GPVTG,,T,,M,0.639,N,1.183,K,A*24\n'
'$GPGGA,134902.00,0105.71300,S,03700.73848,E,1,04,4.89,1542.6,M,-22.0,M,,*51\n'
'$GPGSA,A,3,20,25,29,18,,,,,,,,,8.41,4.89,6.84*07\n'
'$GPGSV,4,1,13,05,01,037,,10,44,204,21,12,36,131,18,15,20,100,*71\n'
'$GPGSV,4,2,13,18,39,334,27,20,55,038,42,23,76,175,,24,06,145,*73\n'
'$GPGSV,4,3,13,25,74,098,19,26,06,326,21,29,23,022,42,31,24,279,05*76\n'
'$GPGSV,4,4,13,32,11,211,*48\n'
'$GPGLL,0105.71300,S,03700.73848,E,134902.00,A,A*7C\n'
'$GPRMC,134903.00,A,0105.71303,S,03700.73865,E,0.516,,210421,,,A*6E\n'
'$GPVTG,,T,,M,0.516,N,0.956,K,A*2B\n'
'$GPGGA,134903.00,0105.71303,S,03700.73865,E,1,04,4.89,1542.6,M,-22.0,M,,*5C\n'
'$GPGSA,A,3,20,25,29,18,,,,,,,,,8.41,4.89,6.84*07\n'
'$GPGSV,4,1,13,05,01,037,,10,44,204,20,12,36,131,18,15,20,100,*70\n'
'$GPGSV,4,2,13,18,39,334,27,20,55,038,41,23,76,175,,24,06,145,*70\n'
'$GPGSV,4,3,13,25,74,098,18,26,06,326,20,29,23,022,42,31,24,279,05*76\n'
'$GPGSV,4,4,13,32,11,211,*48\n'
'$GPGLL,0105.71303,S,03700.73865,E,134903.00,A,A*71\n'
'$GPRMC,134904.00,A,0105.71307,S,03700.73889,E,0.278,,210421,,,A*60\n'
'$GPVTG,,T,,M,0.278,N,0.515,K,A*2F\n'
'$GPGGA,134904.00,0105.71307,S,03700.73889,E,1,04,4.89,1542.6,M,-22.0,M,,*5D\n'
'$GPGSA,A,3,20,25,29,18,,,,,,,,,8.40,4.89,6.84*06\n'
'$GPGSV,4,1,13,05,01,037,,10,44,204,20,12,36,131,18,15,20,100,*70\n'
'$GPGSV,4,2,13,18,39,334,28,20,55,038,42,23,76,175,,24,06,145,*7C\n'
'$GPGSV,4,3,13,25,74,098,16,26,06,326,22,29,23,022,42,31,24,279,05*7A\n'
'$GPGSV,4,4,13,32,11,211,*48\n'
'$GPGLL,0105.71307,S,03700.73889,E,134904.00,A,A*70\n'
'$GPRMC,134905.00,A,0105.71311,S,03700.73907,E,0.154,,210421,,,A*6C\n'
'$GPVTG,,T,,M,0.154,N,0.286,K,A*2F\n'
'$GPGGA,134905.00,0105.71311,S,03700.73907,E,1,04,4.88,1542.5,M,-22.0,M,,*5E\n'
'$GPGSA,A,3,20,25,29,18,,,,,,,,,8.40,4.88,6.83*00\n'
'$GPGSV,4,1,13,05,01,037,,10,44,204,19,12,36,131,18,15,20,100,*7A\n'
'$GPGSV,4,2,13,18,39,334,28,20,55,038,40,23,76,175,,24,06,145,*7E\n'
'$GPGSV,4,3,13,25,74,098,15,26,06,326,23,29,23,022,39,31,24,279,05*74\n'
'$GPGSV,4,4,13,32,11,211,*48\n'
'$GPGLL,0105.71311,S,03700.73907,E,134905.00,A,A*71\n'
'$GPRMC,134906.00,A,0105.71317,S,03700.73917,E,0.184,,210421,,,A*65\n'
'$GPVTG,,T,,M,0.184,N,0.342,K,A*2B\n'
'$GPGGA,134906.00,0105.71317,S,03700.73917,E,1,04,4.88,1542.5,M,-22.0,M,,*5A\n'
'$GPGSA,A,3,20,25,29,18,,,,,,,,,8.40,4.88,6.83*00\n'
'$GPGSV,4,1,13,05,01,037,,10,44,204,18,12,36,131,16,15,20,100,*75\n'
'$GPGSV,4,2,13,18,39,334,28,20,55,038,41,23,76,175,,24,06,145,*7F\n'
'$GPGSV,4,3,13,25,74,098,14,26,06,326,22,29,23,022,41,31,24,279,05*7B\n'
'$GPGSV,4,4,13,32,11,211,*48\n'
'$GPGLL,0105.71317,S,03700.73917,E,134906.00,A,A*75\n'
'$GPRMC,134907.00,A,0105.71321,S,03700.73917,E,0.246,,210421,,,A*6C\n'
'$GPVTG,,T,,M,0.246,N,0.456,K,A*24\n'
'$GPGGA,134907.00,0105.71321,S,03700.73917,E,1,04,4.88,1542.5,M,-22.0,M,,*5E\n'
'$GPGSA,A,3,20,25,29,18,,,,,,,,,8.39,4.88,6.83*0E\n'
'$GPGSV,4,1,13,05,01,037,,10,44,204,19,12,36,131,17,15,20,100,*75\n'
'$GPGSV,4,2,13,18,39,334,29,20,55,038,43,23,76,175,22,24,06,145,*7C\n'
'$GPGSV,4,3,13,25,74,098,15,26,06,326,23,29,23,022,43,31,24,279,*7C\n'
'$GPGSV,4,4,13,32,11,211,*48\n'
'$GPGLL,0105.71321,S,03700.73917,E,134907.00,A,A*71\n'
'$GPRMC,134908.00,A,0105.71320,S,03700.73928,E,0.190,,210421,,,A*66\n'
'$GPVTG,,T,,M,0.190,N,0.352,K,A*2F\n'
'$GPGGA,134908.00,0105.71320,S,03700.73928,E,1,05,4.88,1542.5,M,-22.0,M,,*5D\n'
'$GPGSA,A,3,20,25,31,29,18,,,,,,,,8.39,4.88,6.83*0C\n'
'$GPGSV,4,1,13,05,01,037,,10,44,204,20,12,36,131,15,15,20,100,*7D\n'
'$GPGSV,4,2,13,18,39,334,30,20,55,038,43,23,76,175,23,24,06,145,*75\n'
'$GPGSV,4,3,13,25,74,098,15,26,06,326,23,29,23,022,43,31,24,279,19*74\n'
'$GPGSV,4,4,13,32,11,211,*48\n'
'$GPGLL,0105.71320,S,03700.73928,E,134908.00,A,A*73\n'
'$GPRMC,134909.00,A,0105.71325,S,03700.73972,E,0.119,,210421,,,A*6C\n'
'$GPVTG,,T,,M,0.119,N,0.221,K,A*2B\n'
'$GPGGA,134909.00,0105.71325,S,03700.73972,E,1,05,4.88,1542.4,M,-22.0,M,,*57\n'
'$GPGSA,A,3,20,25,31,29,18,,,,,,,,8.39,4.88,6.83*0C\n'
'$GPGSV,4,1,13,05,01,037,,10,44,204,21,12,36,131,15,15,20,100,*7C\n'
'$GPGSV,4,2,13,18,39,334,31,20,55,038,43,23,76,175,23,24,06,145,*74\n'
'$GPGSV,4,3,13,25,74,098,15,26,06,326,24,29,23,022,43,31,24,279,19*73\n'
'$GPGSV,4,4,13,32,11,211,*48\n'
'$GPGLL,0105.71325,S,03700.73972,E,134909.00,A,A*78\n'
'$GPRMC,134910.00,A,0105.71329,S,03700.73993,E,0.112,,210421,,,A*6C\n'
'$GPVTG,,T,,M,0.112,N,0.207,K,A*24\n'
'$GPGGA,134910.00,0105.71329,S,03700.73993,E,1,05,4.87,1542.4,M,-22.0,M,,*53\n'
'$GPGSA,A,3,20,25,31,29,18,,,,,,,,8.39,4.87,6.82*02\n'
'$GPGSV,4,1,13,05,01,037,,10,44,204,21,12,36,131,14,15,20,100,*7D\n'
'$GPGSV,4,2,13,18,39,334,31,20,55,038,43,23,76,175,23,24,06,145,*74\n'
'$GPGSV,4,3,13,25,74,098,16,26,06,326,25,29,23,022,43,31,24,279,19*71\n'
'$GPGSV,4,4,13,32,11,211,*48\n'
'$GPGLL,0105.71329,S,03700.73993,E,134910.00,A,A*73\n'
'$GPRMC,134911.00,A,0105.71322,S,03700.74066,E,0.025,,210421,,,A*67\n'
'$GPVTG,,T,,M,0.025,N,0.047,K,A*27\n'
'$GPGGA,134911.00,0105.71322,S,03700.74066,E,1,05,2.43,1542.4,M,-22.0,M,,*53\n'
'$GPGSA,A,3,20,25,31,29,18,,,,,,,,4.14,2.43,3.36*05\n'
'$GPGSV,4,1,13,05,01,037,,10,44,204,20,12,36,131,13,15,20,100,*7B\n'
'$GPGSV,4,2,13,18,39,334,30,20,55,038,40,23,76,175,22,24,06,145,*77\n'
'$GPGSV,4,3,13,25,74,098,16,26,06,326,24,29,23,022,41,31,24,279,18*73\n'
'$GPGSV,4,4,13,32,11,211,*48\n'
'$GPGLL,0105.71322,S,03700.74066,E,134911.00,A,A*7D\n'
'$GPRMC,134912.00,A,0105.71314,S,03700.74103,E,0.096,,210421,,,A*6B\n'
'$GPVTG,,T,,M,0.096,N,0.177,K,A*2D\n'
'$GPGGA,134912.00,0105.71314,S,03700.74103,E,1,05,2.43,1542.4,M,-22.0,M,,*57\n'
'$GPGSA,A,3,20,25,31,29,18,,,,,,,,4.14,2.43,3.36*05\n'
'$GPGSV,4,1,13,05,01,037,,10,44,204,19,12,36,131,13,15,20,100,*71\n'
'$GPGSV,4,2,13,18,39,334,31,20,55,038,42,23,76,175,21,24,06,145,*77\n'
'$GPGSV,4,3,13,25,74,098,17,26,06,326,23,29,23,022,42,31,24,279,19*77\n'
'$GPGSV,4,4,13,32,11,211,*48\n'
'$GPGLL,0105.71314,S,03700.74103,E,134912.00,A,A*79\n'
'$GPRMC,134913.00,A,0105.71316,S,03700.74133,E,0.160,,210421,,,A*63\n'
'$GPVTG,,T,,M,0.160,N,0.296,K,A*29\n'
'$GPGGA,134913.00,0105.71316,S,03700.74133,E,1,05,2.43,1542.4,M,-22.0,M,,*57\n'
'$GPGSA,A,3,20,25,31,29,18,,,,,,,,4.14,2.43,3.36*05\n'
'$GPGSV,4,1,13,05,01,037,,10,44,204,19,12,36,131,12,15,20,100,*70\n'
'$GPGSV,4,2,13,18,39,334,31,20,55,038,42,23,76,175,20,24,06,145,*76\n'
'$GPGSV,4,3,13,25,74,098,18,26,06,326,23,29,23,022,42,31,24,279,19*78\n'
'$GPGSV,4,4,13,32,11,211,*48\n'
'$GPGLL,0105.71316,S,03700.74133,E,134913.00,A,A*79\n'
'$GPRMC,134914.00,A,0105.71319,S,03700.74149,E,0.466,,210421,,,A*65\n'
'$GPVTG,,T,,M,0.466,N,0.863,K,A*2A\n'
'$GPGGA,134914.00,0105.71319,S,03700.74149,E,1,05,2.43,1542.3,M,-22.0,M,,*55\n'
'$GPGSA,A,3,20,25,31,29,18,,,,,,,,4.14,2.43,3.36*05\n'
'$GPGSV,4,1,13,05,01,037,,10,44,204,19,12,36,131,12,15,20,100,*70\n'
'$GPGSV,4,2,13,18,39,334,31,20,55,038,42,23,76,175,20,24,06,145,*76\n'
'$GPGSV,4,3,13,25,74,098,18,26,06,326,23,29,23,022,42,31,24,279,19*78\n'
'$GPGSV,4,4,13,32,11,211,*48\n'
'$GPGLL,0105.71319,S,03700.74149,E,134914.00,A,A*7C\n'
'$GPRMC,134915.00,A,0105.71323,S,03700.74168,E,0.240,,210421,,,A*6C\n'
'$GPVTG,,T,,M,0.240,N,0.445,K,A*20\n'
'$GPGGA,134915.00,0105.71323,S,03700.74168,E,1,05,2.43,1542.3,M,-22.0,M,,*5E\n'
'$GPGSA,A,3,20,25,31,29,18,,,,,,,,4.14,2.43,3.36*05\n'
'$GPGSV,4,1,13,05,01,037,,10,44,204,19,12,36,131,12,15,20,100,*70\n'
'$GPGSV,4,2,13,18,39,334,32,20,55,038,42,23,76,175,19,24,06,145,*7F\n'
'$GPGSV,4,3,13,25,74,098,18,26,06,326,23,29,23,022,42,31,24,279,18*79\n'
'$GPGSV,4,4,13,32,11,211,*48\n'
'$GPGLL,0105.71323,S,03700.74168,E,134915.00,A,A*77\n'
'$GPRMC,135447.00,A,0105.71175,S,03700.74316,E,0.608,,210421,,,A*65\n'
'$GPVTG,,T,,M,0.608,N,1.125,K,A*2A\n'
'$GPGGA,135447.00,0105.71175,S,03700.74316,E,1,05,2.31,1544.0,M,-22.0,M,,*5F\n'
'$GPGSA,A,3,20,25,31,29,18,,,,,,,,4.12,2.31,3.42*05\n'
'$GPGSV,3,1,12,10,47,204,22,12,34,133,,15,19,097,,18,37,337,18*78\n'
'$GPGSV,3,2,12,20,53,036,40,23,79,171,,24,05,144,,25,73,106,16*77\n'
'$GPGSV,3,3,12,26,07,326,12,29,23,024,40,31,24,277,22,32,12,210,11*72\n'
'$GPGLL,0105.71175,S,03700.74316,E,135447.00,A,A*76\n'
'$GPRMC,135448.00,A,0105.71136,S,03700.74304,E,0.684,,210421,,,A*6A\n'
'$GPVTG,,T,,M,0.684,N,1.267,K,A*2B\n'
'$GPGGA,135448.00,0105.71136,S,03700.74304,E,1,05,2.31,1544.3,M,-22.0,M,,*57\n'
'$GPGSA,A,3,20,25,31,29,18,,,,,,,,4.12,2.31,3.42*05\n'
'$GPGSV,3,1,12,10,47,204,23,12,34,133,,15,19,097,,18,37,337,19*78\n'
'$GPGSV,3,2,12,20,53,036,40,23,79,171,,24,05,144,,25,73,108,16*79\n'
'$GPGSV,3,3,12,26,07,326,11,29,23,024,40,31,24,277,23,32,12,210,11*70\n'
'$GPGLL,0105.71136,S,03700.74304,E,135448.00,A,A*7D\n'
'$GPRMC,135449.00,A,0105.71115,S,03700.74279,E,0.603,,210421,,,A*6E\n'
'$GPVTG,,T,,M,0.603,N,1.117,K,A*20\n'
'$GPGGA,135449.00,0105.71115,S,03700.74279,E,1,05,2.30,1544.4,M,-22.0,M,,*5A\n'
'$GPGSA,A,3,20,25,31,29,18,,,,,,,,4.12,2.30,3.42*04\n'
'$GPGSV,3,1,12,10,47,204,22,12,34,133,,15,19,097,,18,37,337,20*73\n'
'$GPGSV,3,2,12,20,53,036,40,23,79,171,,24,05,144,,25,73,108,16*79\n'
'$GPGSV,3,3,12,26,08,326,13,29,23,024,40,31,24,277,23,32,12,210,11*7D\n'
'$GPGLL,0105.71115,S,03700.74279,E,135449.00,A,A*76\n'
'$GPRMC,135450.00,A,0105.71118,S,03700.74270,E,0.540,,210421,,,A*66\n'
'$GPVTG,,T,,M,0.540,N,1.000,K,A*23\n'
'$GPGGA,135450.00,0105.71118,S,03700.74270,E,1,05,2.30,1544.1,M,-22.0,M,,*53\n'
'$GPGSA,A,3,20,25,31,29,18,,,,,,,,4.12,2.30,3.42*04\n'
'$GPGSV,3,1,12,10,47,204,22,12,34,133,16,15,19,097,,18,37,337,20*74\n'
'$GPGSV,3,2,12,20,53,036,40,23,79,171,,24,05,144,,25,73,108,13*7C\n'
'$GPGSV,3,3,12,26,08,326,13,29,23,024,40,31,24,277,23,32,12,210,12*7E\n'
'$GPGLL,0105.71118,S,03700.74270,E,135450.00,A,A*7A\n'
'$GPRMC,135451.00,A,0105.71109,S,03700.74255,E,0.522,,210421,,,A*64\n'
'$GPVTG,,T,,M,0.522,N,0.966,K,A*2F\n'
'$GPGGA,135451.00,0105.71109,S,03700.74255,E,1,05,2.30,1544.2,M,-22.0,M,,*56\n'
'$GPGSA,A,3,20,25,31,29,18,,,,,,,,4.12,2.30,3.42*04\n'
'$GPGSV,3,1,12,10,47,204,23,12,34,133,17,15,19,097,,18,37,337,18*7F\n'
'$GPGSV,3,2,12,20,53,036,40,23,79,171,,24,05,144,,25,73,108,13*7C\n'
'$GPGSV,3,3,12,26,08,326,13,29,23,024,40,31,24,277,23,32,12,210,12*7E\n'
'$GPGLL,0105.71109,S,03700.74255,E,135451.00,A,A*7C\n'
'$GPRMC,135452.00,A,0105.71100,S,03700.74267,E,0.301,,210421,,,A*68\n'
'$GPVTG,,T,,M,0.301,N,0.557,K,A*26\n'
'$GPGGA,135452.00,0105.71100,S,03700.74267,E,1,05,2.30,1544.3,M,-22.0,M,,*5C\n'
'$GPGSA,A,3,20,25,31,29,18,,,,,,,,4.12,2.30,3.42*04\n'
'$GPGSV,3,1,12,10,47,204,24,12,34,133,17,15,19,097,,18,37,337,16*76\n'
'$GPGSV,3,2,12,20,53,036,40,23,79,171,,24,05,144,,25,73,108,13*7C\n'
'$GPGSV,3,3,12,26,08,326,14,29,23,025,40,31,24,277,23,32,12,210,12*78\n'
'$GPGLL,0105.71100,S,03700.74267,E,135452.00,A,A*77\n'
'$GPRMC,135453.00,A,0105.71070,S,03700.74238,E,0.515,,210421,,,A*66\n'
'$GPVTG,,T,,M,0.515,N,0.954,K,A*2A\n'
'$GPGGA,135453.00,0105.71070,S,03700.74238,E,1,05,2.30,1544.6,M,-22.0,M,,*54\n'
'$GPGSA,A,3,20,25,31,29,18,,,,,,,,4.12,2.30,3.42*04\n'
'$GPGSV,3,1,12,10,47,204,24,12,34,133,18,15,19,097,,18,37,337,15*7A\n'
'$GPGSV,3,2,12,20,53,036,40,23,79,171,,24,05,144,,25,73,108,13*7C\n'
'$GPGSV,3,3,12,26,08,326,14,29,23,025,39,31,24,277,23,32,12,210,12*76\n'
'$GPGLL,0105.71070,S,03700.74238,E,135453.00,A,A*7A\n'
'$GPRMC,135454.00,A,0105.71042,S,03700.74205,E,0.752,,210421,,,A*6F\n'
'$GPVTG,,T,,M,0.752,N,1.392,K,A*2A\n'
'$GPGGA,135454.00,0105.71042,S,03700.74205,E,1,05,2.30,1544.8,M,-22.0,M,,*52\n'
'$GPGSA,A,3,20,25,31,29,18,,,,,,,,4.12,2.30,3.42*04\n'
'$GPGSV,3,1,12,10,47,204,24,12,34,133,19,15,19,097,,18,37,337,16*78\n'
'$GPGSV,3,2,12,20,53,036,40,23,79,171,,24,05,144,,25,73,108,13*7C\n'
'$GPGSV,3,3,12,26,08,326,14,29,23,025,39,31,24,276,23,32,12,210,12*77\n'
'$GPGLL,0105.71042,S,03700.74205,E,135454.00,A,A*72\n'
'$GPRMC,135455.00,A,0105.71021,S,03700.74174,E,0.904,,210421,,,A*63\n'
'$GPVTG,,T,,M,0.904,N,1.674,K,A*2A\n'
'$GPGGA,135455.00,0105.71021,S,03700.74174,E,1,05,2.30,1545.0,M,-22.0,M,,*5A\n'
'$GPGSA,A,3,20,25,31,29,18,,,,,,,,4.12,2.30,3.42*04\n'
'$GPGSV,3,1,12,10,47,204,25,12,34,133,20,15,19,097,,18,37,337,17*72\n'
'$GPGSV,3,2,12,20,53,036,40,23,79,171,,24,05,144,,25,73,108,13*7C\n'
'$GPGSV,3,3,12,26,08,326,14,29,23,025,40,31,24,276,24,32,12,209,12*76\n'
'$GPGLL,0105.71021,S,03700.74174,E,135455.00,A,A*73\n'
'$GPRMC,135456.00,A,0105.71003,S,03700.74199,E,0.395,,210421,,,A*61\n'
'$GPVTG,,T,,M,0.395,N,0.732,K,A*2A\n'
'$GPGGA,135456.00,0105.71003,S,03700.74199,E,1,05,2.30,1545.4,M,-22.0,M,,*5E\n'
'$GPGSA,A,3,20,25,31,29,18,,,,,,,,4.12,2.30,3.42*04\n'
'$GPGSV,3,1,12,10,47,204,26,12,34,133,20,15,19,097,,18,37,337,20*75\n'
'$GPGSV,3,2,12,20,53,036,40,23,79,171,,24,05,144,,25,73,108,17*78\n'
'$GPGSV,3,3,12,26,08,326,14,29,23,025,40,31,24,276,25,32,12,209,16*73\n'
'$GPGLL,0105.71003,S,03700.74199,E,135456.00,A,A*73\n'
'$GPRMC,135457.00,A,0105.70985,S,03700.74204,E,0.371,,210421,,,A*6B\n'
'$GPVTG,,T,,M,0.371,N,0.688,K,A*20\n'
'$GPGGA,135457.00,0105.70985,S,03700.74204,E,1,05,2.30,1545.6,M,-22.0,M,,*5C\n'
'$GPGSA,A,3,20,25,31,29,18,,,,,,,,4.12,2.30,3.42*04\n'
'$GPGSV,3,1,12,10,47,204,26,12,34,133,20,15,19,097,,18,37,337,21*74\n'
'$GPGSV,3,2,12,20,53,036,40,23,79,171,,24,05,144,,25,73,108,17*78\n'
'$GPGSV,3,3,12,26,08,326,13,29,23,025,40,31,24,276,25,32,12,209,16*74\n'
'$GPGLL,0105.70985,S,03700.74204,E,135457.00,A,A*73\n'
'$GPRMC,135458.00,A,0105.70943,S,03700.74183,E,0.474,,210421,,,A*60\n'
'$GPVTG,,T,,M,0.474,N,0.878,K,A*23\n'
'$GPGGA,135458.00,0105.70943,S,03700.74183,E,1,05,2.30,1546.3,M,-22.0,M,,*53\n'
'$GPGSA,A,3,20,25,31,29,18,,,,,,,,4.12,2.30,3.42*04\n'
'$GPGSV,3,1,12,10,47,204,26,12,34,133,20,15,19,097,,18,37,337,21*74\n'
'$GPGSV,3,2,12,20,53,036,40,23,79,171,,24,05,144,,25,73,108,17*78\n'
'$GPGSV,3,3,12,26,08,326,13,29,23,025,40,31,24,276,25,32,12,209,16*74\n'
'$GPGLL,0105.70943,S,03700.74183,E,135458.00,A,A*7A\n'
'$GPRMC,135459.00,A,0105.70932,S,03700.74185,E,0.317,,210421,,,A*63\n'
'$GPVTG,,T,,M,0.317,N,0.587,K,A*2C\n'
'$GPGGA,135459.00,0105.70932,S,03700.74185,E,1,05,2.30,1546.4,M,-22.0,M,,*55\n'
'$GPGSA,A,3,20,25,31,29,18,,,,,,,,4.12,2.30,3.42*04\n'
'$GPGSV,3,1,12,10,47,204,26,12,34,133,20,15,19,097,,18,37,337,22*77\n'
'$GPGSV,3,2,12,20,53,036,40,23,79,171,,24,05,144,,25,73,108,17*78\n'
'$GPGSV,3,3,12,26,08,326,12,29,23,025,39,31,24,276,25,32,12,209,16*7B\n'
'$GPGLL,0105.70932,S,03700.74185,E,135459.00,A,A*7B\n'
'$GPRMC,135500.00,A,0105.70946,S,03700.74209,E,0.246,,210421,,,A*6F\n'
'$GPVTG,,T,,M,0.246,N,0.455,K,A*27\n'
'$GPGGA,135500.00,0105.70946,S,03700.74209,E,1,05,2.30,1546.3,M,-22.0,M,,*5B\n'
'$GPGSA,A,3,20,25,31,29,18,,,,,,,,4.12,2.30,3.42*04\n'
'$GPGSV,3,1,12,10,47,204,25,12,34,133,20,15,19,097,,18,37,337,23*75\n'
'$GPGSV,3,2,12,20,53,036,40,23,79,171,,24,05,144,,25,73,108,17*78\n'
'$GPGSV,3,3,12,26,08,326,13,29,23,025,39,31,24,276,25,32,12,209,16*7A\n'
'$GPGLL,0105.70946,S,03700.74209,E,135500.00,A,A*72\n'
'$GPRMC,135501.00,A,0105.70907,S,03700.74198,E,0.438,,210421,,,A*6F\n'
'$GPVTG,,T,,M,0.438,N,0.812,K,A*27\n'
'$GPGGA,135501.00,0105.70907,S,03700.74198,E,1,05,2.30,1546.9,M,-22.0,M,,*5E\n'
'$GPGSA,A,3,20,25,31,29,18,,,,,,,,4.12,2.30,3.42*04\n'
'$GPGSV,3,1,12,10,47,204,25,12,34,133,19,15,19,097,,18,37,337,23*7F\n'
'$GPGSV,3,2,12,20,53,036,40,23,79,171,,24,05,144,,25,73,108,17*78\n'
'$GPGSV,3,3,12,26,08,326,13,29,23,025,39,31,24,276,25,32,12,209,16*7A\n'
'$GPGLL,0105.70907,S,03700.74198,E,135501.00,A,A*7D\n'
'$GPRMC,135502.00,A,0105.70872,S,03700.74201,E,0.461,,210421,,,A*60\n'
'$GPVTG,,T,,M,0.461,N,0.853,K,A*2E\n'
'$GPGGA,135502.00,0105.70872,S,03700.74201,E,1,05,2.30,1547.5,M,-22.0,M,,*50\n'
'$GPGSA,A,3,20,25,31,29,18,,,,,,,,4.12,2.30,3.42*04\n'
'$GPGSV,3,1,12,10,47,204,24,12,34,133,19,15,19,097,,18,37,337,22*7F\n'
'$GPGSV,3,2,12,20,53,036,40,23,79,171,,24,05,144,,25,73,108,17*78\n'
'$GPGSV,3,3,12,26,08,326,11,29,23,025,39,31,24,276,24,32,12,209,08*76\n'
'$GPGLL,0105.70872,S,03700.74201,E,135502.00,A,A*7E\n'
'$GPRMC,135503.00,A,0105.70868,S,03700.74207,E,0.137,,210421,,,A*6A\n'
'$GPVTG,,T,,M,0.137,N,0.253,K,A*22\n'
'$GPGGA,135503.00,0105.70868,S,03700.74207,E,1,05,2.30,1547.5,M,-22.0,M,,*5C\n'
'$GPGSA,A,3,20,25,31,29,18,,,,,,,,4.12,2.30,3.42*04\n'
'$GPGSV,3,1,12,10,47,204,23,12,34,133,18,15,19,097,,18,37,337,22*79\n'
'$GPGSV,3,2,12,20,53,036,40,23,79,171,,24,05,144,,25,73,108,17*78\n'
'$GPGSV,3,3,12,26,08,326,11,29,23,025,40,31,24,276,25,32,12,209,08*79\n'
'$GPGLL,0105.70868,S,03700.74207,E,135503.00,A,A*72\n'
'$GPRMC,135504.00,A,0105.70890,S,03700.74221,E,0.270,,210421,,,A*6E\n'
'$GPVTG,,T,,M,0.270,N,0.500,K,A*23\n'
'$GPGGA,135504.00,0105.70890,S,03700.74221,E,1,05,2.30,1547.4,M,-22.0,M,,*59\n'
'$GPGSA,A,3,20,25,31,29,18,,,,,,,,4.12,2.30,3.42*04\n'
'$GPGSV,3,1,12,10,47,204,23,12,34,133,18,15,19,097,,18,37,337,22*79\n'
'$GPGSV,3,2,12,20,53,036,41,23,79,171,,24,05,144,,25,73,108,17*79\n'
'$GPGSV,3,3,12,26,08,326,13,29,23,025,39,31,24,276,24,32,12,209,08*74\n'
'$GPGLL,0105.70890,S,03700.74221,E,135504.00,A,A*76\n'
'$GPRMC,135505.00,A,0105.70922,S,03700.74231,E,0.341,,210421,,,A*65\n'
'$GPVTG,,T,,M,0.341,N,0.631,K,A*21\n'
'$GPGGA,135505.00,0105.70922,S,03700.74231,E,1,05,2.30,1547.1,M,-22.0,M,,*54\n'
'$GPGSA,A,3,20,25,31,29,18,,,,,,,,4.12,2.30,3.42*04\n'
'$GPGSV,3,1,12,10,47,204,23,12,34,133,18,15,19,097,,18,37,337,24*7F\n'
'$GPGSV,3,2,12,20,53,036,41,23,79,171,,24,05,144,,25,73,108,17*79\n'
'$GPGSV,3,3,12,26,08,326,13,29,23,025,39,31,24,276,25,32,12,209,08*75\n'
'$GPGLL,0105.70922,S,03700.74231,E,135505.00,A,A*7E\n'
'$GPRMC,135506.00,A,0105.70961,S,03700.74244,E,0.465,,210421,,,A*62\n'
'$GPVTG,,T,,M,0.465,N,0.862,K,A*28\n'
'$GPGGA,135506.00,0105.70961,S,03700.74244,E,1,05,2.30,1546.7,M,-22.0,M,,*55\n'
'$GPGSA,A,3,20,25,31,29,18,,,,,,,,4.12,2.30,3.42*04\n'
'$GPGSV,3,1,12,10,47,204,22,12,34,133,18,15,19,097,,18,37,337,24*7E\n'
'$GPGSV,3,2,12,20,53,036,41,23,79,171,,24,05,144,,25,73,108,17*79\n'
'$GPGSV,3,3,12,26,08,326,14,29,23,025,39,31,24,276,25,32,12,209,08*72\n'
'$GPGLL,0105.70961,S,03700.74244,E,135506.00,A,A*78\n'
'$GPRMC,135507.00,A,0105.70972,S,03700.74247,E,0.318,,210421,,,A*6F\n'
'$GPVTG,,T,,M,0.318,N,0.590,K,A*25\n'
'$GPGGA,135507.00,0105.70972,S,03700.74247,E,1,05,2.30,1546.6,M,-22.0,M,,*54\n'
'$GPGSA,A,3,20,25,31,29,18,,,,,,,,4.12,2.30,3.42*04\n'
'$GPGSV,3,1,12,10,47,204,21,12,34,133,17,15,19,097,,18,37,337,23*75\n'
'$GPGSV,3,2,12,20,53,036,41,23,79,171,,24,05,144,,25,73,108,17*79\n'
'$GPGSV,3,3,12,26,08,326,16,29,23,025,41,31,24,276,25,32,12,209,08*7F\n'
'$GPGLL,0105.70972,S,03700.74247,E,135507.00,A,A*78\n'
'$GPRMC,135508.00,A,0105.70992,S,03700.74252,E,0.321,,210421,,,A*60\n'
'$GPVTG,,T,,M,0.321,N,0.595,K,A*2A\n'
'$GPGGA,135508.00,0105.70992,S,03700.74252,E,1,05,2.30,1546.4,M,-22.0,M,,*53\n'
'$GPGSA,A,3,20,25,31,29,18,,,,,,,,4.12,2.30,3.42*04\n'
'$GPGSV,3,1,12,10,47,204,21,12,34,133,17,15,19,097,,18,37,337,23*75\n'
'$GPGSV,3,2,12,20,53,036,41,23,79,171,,24,05,144,,25,73,108,12*7C\n'
'$GPGSV,3,3,12,26,08,326,15,29,23,025,39,31,24,276,25,32,12,209,08*73\n'
'$GPGLL,0105.70992,S,03700.74252,E,135508.00,A,A*7D\n'
'$GPRMC,135509.00,A,0105.71037,S,03700.74273,E,0.444,,210421,,,A*61\n'
'$GPVTG,,T,,M,0.444,N,0.823,K,A*2E\n'
'$GPGGA,135509.00,0105.71037,S,03700.74273,E,1,05,2.30,1545.9,M,-22.0,M,,*58\n'
'$GPGSA,A,3,20,25,31,29,18,,,,,,,,4.12,2.30,3.42*04\n'
'$GPGSV,3,1,12,10,47,204,21,12,34,133,16,15,19,097,18,18,37,337,22*7C\n'
'$GPGSV,3,2,12,20,53,036,41,23,79,171,,24,05,144,,25,73,108,12*7C\n'
'$GPGSV,3,3,12,26,08,326,15,29,23,025,38,31,24,276,25,32,12,209,08*72\n'
'$GPGLL,0105.71037,S,03700.74273,E,135509.00,A,A*78\n'
'$GPRMC,135510.00,A,0105.71043,S,03700.74273,E,0.190,,210421,,,A*66\n'
'$GPVTG,,T,,M,0.190,N,0.352,K,A*2F\n'
'$GPGGA,135510.00,0105.71043,S,03700.74273,E,1,05,2.30,1545.7,M,-22.0,M,,*5D\n'
'$GPGSA,A,3,20,25,31,29,18,,,,,,,,4.12,2.30,3.42*04\n'
'$GPGSV,3,1,12,10,47,204,21,12,34,133,16,15,19,097,18,18,37,337,21*7F\n'
'$GPGSV,3,2,12,20,53,036,41,23,79,171,,24,05,144,,25,73,108,12*7C\n'
'$GPGSV,3,3,12,26,08,326,14,29,23,025,38,31,24,276,25,32,12,209,08*73\n'
'$GPGLL,0105.71043,S,03700.74273,E,135510.00,A,A*73\n'
'$GPRMC,135511.00,A,0105.71065,S,03700.74285,E,0.258,,210421,,,A*6D\n'
'$GPVTG,,T,,M,0.258,N,0.477,K,A*28\n'
'$GPGGA,135511.00,0105.71065,S,03700.74285,E,1,05,2.30,1545.4,M,-22.0,M,,*52\n'
'$GPGSA,A,3,20,25,31,29,18,,,,,,,,4.12,2.30,3.42*04\n'
'$GPGSV,3,1,12,10,47,204,21,12,34,133,16,15,19,097,,18,37,337,21*76\n'
'$GPGSV,3,2,12,20,53,036,41,23,79,171,,24,05,144,,25,73,108,12*7C\n'
'$GPGSV,3,3,12,26,08,326,12,29,23,025,40,31,24,276,25,32,12,209,08*7A\n'
'$GPGLL,0105.71065,S,03700.74285,E,135511.00,A,A*7F\n'
'$GPRMC,135512.00,A,0105.71069,S,03700.74287,E,0.227,,210421,,,A*68\n'
'$GPVTG,,T,,M,0.227,N,0.420,K,A*22\n'
'$GPGGA,135512.00,0105.71069,S,03700.74287,E,1,05,2.30,1545.3,M,-22.0,M,,*58\n'
'$GPGSA,A,3,20,25,31,29,18,,,,,,,,4.12,2.30,3.42*04\n'
'$GPGSV,3,1,12,10,47,204,21,12,34,133,16,15,19,097,,18,37,337,23*74\n'
'$GPGSV,3,2,12,20,53,036,41,23,79,171,,24,05,144,,25,73,108,12*7C\n'
'$GPGSV,3,3,12,26,08,326,11,29,23,025,39,31,24,276,24,32,12,209,08*76\n'
'$GPGLL,0105.71069,S,03700.74287,E,135512.00,A,A*72\n'
'$GPRMC,135513.00,A,0105.71068,S,03700.74286,E,0.165,,210421,,,A*6C\n'
'$GPVTG,,T,,M,0.165,N,0.305,K,A*27\n'
'$GPGGA,135513.00,0105.71068,S,03700.74286,E,1,05,2.30,1545.4,M,-22.0,M,,*5E\n'
'$GPGSA,A,3,20,25,31,29,18,,,,,,,,4.12,2.30,3.42*04\n'
'$GPGSV,3,1,12,10,47,204,21,12,34,133,14,15,19,097,,18,37,337,24*71\n'
'$GPGSV,3,2,12,20,53,036,41,23,79,171,,24,05,144,,25,73,108,12*7C\n'
'$GPGSV,3,3,12,26,08,326,09,29,23,025,39,31,24,276,23,32,12,209,08*78\n'
'$GPGLL,0105.71068,S,03700.74286,E,135513.00,A,A*73\n'
'$GPRMC,135514.00,A,0105.71065,S,03700.74292,E,0.252,,210421,,,A*64\n'
'$GPVTG,,T,,M,0.252,N,0.467,K,A*23\n'
'$GPGGA,135514.00,0105.71065,S,03700.74292,E,1,05,2.30,1545.3,M,-22.0,M,,*56\n'
'$GPGSA,A,3,20,25,31,29,18,,,,,,,,4.12,2.30,3.42*04\n'
'$GPGSV,3,1,12,10,47,204,21,12,34,133,12,15,19,097,,18,37,337,24*77\n'
'$GPGSV,3,2,12,20,53,036,41,23,79,171,,24,05,144,,25,73,108,13*7D\n'
'$GPGSV,3,3,12,26,08,326,10,29,23,025,40,31,24,276,23,32,12,209,12*75\n'
'$GPGLL,0105.71065,S,03700.74292,E,135514.00,A,A*7C\n'
'$GPRMC,135515.00,A,0105.71053,S,03700.74293,E,0.241,,210421,,,A*63\n'
'$GPVTG,,T,,M,0.241,N,0.447,K,A*23\n'
'$GPGGA,135515.00,0105.71053,S,03700.74293,E,1,05,2.30,1545.5,M,-22.0,M,,*55\n'
'$GPGSA,A,3,20,25,31,29,18,,,,,,,,4.12,2.30,3.42*04\n'
'$GPGSV,3,1,12,10,47,204,21,12,34,133,13,15,19,097,,18,37,337,24*76\n'
'$GPGSV,3,2,12,20,53,036,40,23,79,171,,24,05,144,,25,73,108,13*7C\n'
'$GPGSV,3,3,12,26,08,326,14,29,23,025,37,31,24,276,24,32,12,209,12*76\n'
'$GPGLL,0105.71053,S,03700.74293,E,135515.00,A,A*79\n'
'$GPRMC,135516.00,A,0105.71033,S,03700.74278,E,0.228,,210421,,,A*6C\n'
'$GPVTG,,T,,M,0.228,N,0.423,K,A*2E\n'
'$GPGGA,135516.00,0105.71033,S,03700.74278,E,1,05,2.30,1545.7,M,-22.0,M,,*57\n'
'$GPGSA,A,3,20,25,31,29,18,,,,,,,,4.12,2.30,3.42*04\n'
'$GPGSV,3,1,12,10,47,204,19,12,34,133,14,15,19,097,,18,37,337,24*7A\n'
'$GPGSV,3,2,12,20,53,036,41,23,79,171,,24,05,144,,25,73,108,13*7D\n'
'$GPGSV,3,3,12,26,08,326,16,29,23,025,41,31,24,276,24,32,12,209,12*75\n'
'$GPGLL,0105.71033,S,03700.74278,E,135516.00,A,A*79\n'
'$GPRMC,135517.00,A,0105.71044,S,03700.74294,E,0.051,,210421,,,A*63\n'
'$GPVTG,,T,,M,0.051,N,0.095,K,A*2B\n'
'$GPGGA,135517.00,0105.71044,S,03700.74294,E,1,05,2.30,1545.6,M,-22.0,M,,*55\n'
'$GPGSA,A,3,20,25,31,29,18,,,,,,,,4.12,2.30,3.42*04\n'
'$GPGSV,3,1,12,10,47,204,17,12,34,133,14,15,19,097,,18,37,337,26*76\n'
'$GPGSV,3,2,12,20,53,036,41,23,79,171,,24,05,144,,25,73,108,13*7D\n'
'$GPGSV,3,3,12,26,08,326,16,29,23,025,40,31,24,276,25,32,12,209,12*75\n'
'$GPGLL,0105.71044,S,03700.74294,E,135517.00,A,A*7A\n'
'$GPRMC,135518.00,A,0105.71048,S,03700.74301,E,0.144,,210421,,,A*68\n'
'$GPVTG,,T,,M,0.144,N,0.267,K,A*21\n'
'$GPGGA,135518.00,0105.71048,S,03700.74301,E,1,05,2.30,1545.4,M,-22.0,M,,*59\n'
'$GPGSA,A,3,20,25,31,29,18,,,,,,,,4.12,2.30,3.42*04\n'
'$GPGSV,3,1,12,10,47,204,17,12,34,133,15,15,19,097,,18,37,337,24*75\n'
'$GPGSV,3,2,12,20,53,036,41,23,79,171,,24,05,144,18,25,73,108,13*74\n'
'$GPGSV,3,3,12,26,08,326,15,29,23,025,39,31,24,276,25,32,12,209,12*78\n'
'$GPGLL,0105.71048,S,03700.74301,E,135518.00,A,A*74\n'
'$GPRMC,135519.00,A,0105.71050,S,03700.74305,E,0.278,,210421,,,A*68\n'
'$GPVTG,,T,,M,0.278,N,0.515,K,A*2F\n'
'$GPGGA,135519.00,0105.71050,S,03700.74305,E,1,05,2.30,1545.3,M,-22.0,M,,*52\n'
'$GPGSA,A,3,20,25,31,29,18,,,,,,,,4.12,2.30,3.42*04\n'
'$GPGSV,3,1,12,10,47,204,17,12,34,133,16,15,19,097,,18,37,337,25*77\n'
'$GPGSV,3,2,12,20,53,036,40,23,79,171,,24,05,144,18,25,73,108,13*75\n'
'$GPGSV,3,3,12,26,08,326,12,29,23,025,40,31,24,276,26,32,12,209,12*72\n'
'$GPGLL,0105.71050,S,03700.74305,E,135519.00,A,A*78\n'
'$GPRMC,135520.00,A,0105.71050,S,03700.74307,E,0.269,,210421,,,A*60\n'
'$GPVTG,,T,,M,0.269,N,0.499,K,A*2A\n'
'$GPGGA,135520.00,0105.71050,S,03700.74307,E,1,05,2.29,1545.2,M,-22.0,M,,*53\n'
'$GPGSA,A,3,20,25,31,29,18,,,,,,,,4.12,2.29,3.42*0C\n'
'$GPGSV,3,1,12,10,47,204,15,12,34,133,14,15,19,097,,18,37,337,25*77\n'
'$GPGSV,3,2,12,20,53,036,40,23,79,171,,24,05,144,17,25,73,108,11*78\n'
'$GPGSV,3,3,12,26,08,326,09,29,23,025,39,31,24,276,25,32,12,209,10*77\n'
'$GPGLL,0105.71050,S,03700.74307,E,135520.00,A,A*70\n'
'$GPRMC,135521.00,A,0105.71061,S,03700.74316,E,0.197,,210421,,,A*61\n'
'$GPVTG,,T,,M,0.197,N,0.366,K,A*2F\n'
'$GPGGA,135521.00,0105.71061,S,03700.74316,E,1,05,2.29,1545.1,M,-22.0,M,,*53\n'
'$GPGSA,A,3,20,25,31,29,18,,,,,,,,4.12,2.29,3.42*0C\n'
'$GPGSV,3,1,12,10,47,204,15,12,34,133,12,15,19,097,,18,37,337,26*72\n'
'$GPGSV,3,2,12,20,53,036,40,23,79,171,,24,05,144,15,25,73,108,11*7A\n'
'$GPGSV,3,3,12,26,08,326,09,29,23,025,38,31,24,276,25,32,12,209,10*76\n'
'$GPGLL,0105.71061,S,03700.74316,E,135521.00,A,A*73\n'
'$GPRMC,135522.00,A,0105.71079,S,03700.74329,E,0.120,,210421,,,A*6B\n'
'$GPVTG,,T,,M,0.120,N,0.223,K,A*23\n'
'$GPGGA,135522.00,0105.71079,S,03700.74329,E,1,05,2.29,1544.9,M,-22.0,M,,*5C\n'
'$GPGSA,A,3,20,25,31,29,18,,,,,,,,4.12,2.29,3.42*0C\n'
'$GPGSV,3,1,12,10,47,204,15,12,34,133,09,15,19,097,,18,37,337,27*79\n'
'$GPGSV,3,2,12,20,53,036,40,23,79,171,,24,05,144,13,25,73,108,11*7C\n'
'$GPGSV,3,3,12,26,08,326,08,29,23,025,35,31,24,276,25,32,12,209,10*7A\n'
'$GPGLL,0105.71079,S,03700.74329,E,135522.00,A,A*75\n'
'$GPRMC,135523.00,A,0105.71098,S,03700.74340,E,0.111,,210421,,,A*68\n'
'$GPVTG,,T,,M,0.111,N,0.205,K,A*25\n'
'$GPGGA,135523.00,0105.71098,S,03700.74340,E,1,05,2.29,1544.6,M,-22.0,M,,*52\n'
'$GPGSA,A,3,20,25,31,29,18,,,,,,,,4.12,2.29,3.43*0D\n'
'$GPGSV,3,1,12,10,47,204,16,12,34,133,08,15,19,097,,18,37,337,24*78\n'
'$GPGSV,3,2,12,20,53,036,41,23,79,171,,24,05,144,13,25,73,108,11*7D\n'
'$GPGSV,3,3,12,26,08,326,09,29,23,025,36,31,24,276,23,32,12,209,10*7E\n'
'$GPGLL,0105.71098,S,03700.74340,E,135523.00,A,A*74\n'
'$GPRMC,135524.00,A,0105.71089,S,03700.74335,E,0.221,,210421,,,A*6D\n'
'$GPVTG,,T,,M,0.221,N,0.409,K,A*2F\n'
'$GPGGA,135524.00,0105.71089,S,03700.74335,E,1,05,2.29,1544.6,M,-22.0,M,,*57\n'
'$GPGSA,A,3,20,25,31,29,18,,,,,,,,4.12,2.29,3.43*0D\n'
'$GPGSV,3,1,12,10,47,204,17,12,34,133,08,15,19,097,,18,37,337,22*7F\n'
'$GPGSV,3,2,12,20,53,036,41,23,79,171,,24,05,144,15,25,73,108,11*7B\n'
'$GPGSV,3,3,12,26,08,326,09,29,23,025,38,31,24,276,22,32,12,209,10*71\n'
'$GPGLL,0105.71089,S,03700.74335,E,135524.00,A,A*71\n'
'$GPRMC,135525.00,A,0105.71086,S,03700.74356,E,0.343,,210421,,,A*63\n'
'$GPVTG,,T,,M,0.343,N,0.635,K,A*27\n'
'$GPGGA,135525.00,0105.71086,S,03700.74356,E,1,05,2.29,1544.5,M,-22.0,M,,*5F\n'
'$GPGSA,A,3,20,25,31,29,18,,,,,,,,4.12,2.29,3.43*0D\n'
'$GPGSV,3,1,12,10,47,204,18,12,34,133,08,15,19,097,,18,37,337,22*70\n'
'$GPGSV,3,2,12,20,53,036,40,23,79,171,,24,05,144,16,25,73,108,11*79\n'
'$GPGSV,3,3,12,26,08,326,09,29,23,025,37,31,24,276,21,32,12,209,10*7D\n'
'$GPGLL,0105.71086,S,03700.74356,E,135525.00,A,A*7A\n'
'$GPRMC,135526.00,A,0105.71078,S,03700.74345,E,0.184,,210421,,,A*6A\n'
'$GPVTG,,T,,M,0.184,N,0.340,K,A*29\n'
'$GPGGA,135526.00,0105.71078,S,03700.74345,E,1,05,2.29,1544.5,M,-22.0,M,,*5F\n'
'$GPGSA,A,3,20,25,31,29,18,,,,,,,,4.12,2.29,3.43*0D\n'
'$GPGSV,3,1,12,10,47,204,18,12,34,133,13,15,19,097,,18,37,337,21*79\n'
'$GPGSV,3,2,12,20,53,036,40,23,79,171,,24,05,144,17,25,73,108,16*7F\n'
'$GPGSV,3,3,12,26,08,326,07,29,23,025,38,31,24,276,21,32,12,209,17*7B\n'
'$GPGLL,0105.71078,S,03700.74345,E,135526.00,A,A*7A\n'
'$GPRMC,135527.00,A,0105.71078,S,03700.74271,E,1.271,,210421,,,A*65\n'
'$GPVTG,,T,,M,1.271,N,2.354,K,A*26\n'
'$GPGGA,135527.00,0105.71078,S,03700.74271,E,1,05,2.29,1544.4,M,-22.0,M,,*59\n'
'$GPGSA,A,3,20,25,31,29,18,,,,,,,,4.12,2.29,3.43*0D\n'
'$GPGSV,3,1,12,10,47,204,17,12,34,133,13,15,19,097,,18,37,337,21*76\n'
'$GPGSV,3,2,12,20,53,036,41,23,79,171,,24,05,144,15,25,73,108,16*7C\n'
'$GPGSV,3,3,12,26,08,326,07,29,23,025,38,31,24,276,21,32,12,209,17*7B\n'
'$GPGLL,0105.71078,S,03700.74271,E,135527.00,A,A*7D\n'
'$GPRMC,135528.00,A,0105.71122,S,03700.74291,E,0.777,,210421,,,A*68\n'
'$GPVTG,,T,,M,0.777,N,1.440,K,A*25\n'
'$GPGGA,135528.00,0105.71122,S,03700.74291,E,1,05,2.29,1544.0,M,-22.0,M,,*52\n'
'$GPGSA,A,3,20,25,31,29,18,,,,,,,,4.12,2.29,3.43*0D\n'
'$GPGSV,3,1,12,10,47,204,17,12,34,133,13,15,19,097,,18,37,337,21*76\n'
'$GPGSV,3,2,12,20,53,036,39,23,79,171,,24,05,144,14,25,73,108,16*72\n'
'$GPGSV,3,3,12,26,08,326,07,29,23,025,37,31,24,276,21,32,12,209,17*74\n'
'$GPGLL,0105.71122,S,03700.74291,E,135528.00,A,A*72\n'
'$GPRMC,135529.00,A,0105.71192,S,03700.74334,E,0.696,,210421,,,A*62\n'
'$GPVTG,,T,,M,0.696,N,1.290,K,A*20\n'
'$GPGGA,135529.00,0105.71192,S,03700.74334,E,1,05,2.29,1543.3,M,-22.0,M,,*52\n'
'$GPGSA,A,3,20,25,31,29,18,,,,,,,,4.12,2.29,3.43*0D\n'
'$GPGSV,3,1,12,10,47,204,17,12,34,133,13,15,19,097,,18,37,337,23*74\n'
'$GPGSV,3,2,12,20,53,036,40,23,79,171,,24,05,144,12,25,73,108,16*7A\n'
'$GPGSV,3,3,12,26,08,326,07,29,23,025,38,31,24,276,20,32,12,209,17*7A\n'
'$GPGLL,0105.71192,S,03700.74334,E,135529.00,A,A*76\n'
'$GPRMC,135530.00,A,0105.71294,S,03700.74385,E,1.057,,210421,,,A*6F\n'
'$GPVTG,,T,,M,1.057,N,1.958,K,A*25\n'
'$GPGGA,135530.00,0105.71294,S,03700.74385,E,1,05,2.29,1542.3,M,-22.0,M,,*54\n'
'$GPGSA,A,3,20,25,31,29,18,,,,,,,,4.12,2.29,3.43*0D\n'
'$GPGSV,3,1,12,10,47,204,17,12,34,133,13,15,19,097,,18,37,337,23*74\n'
'$GPGSV,3,2,12,20,53,036,40,23,79,171,,24,05,144,09,25,73,108,16*70\n'
'$GPGSV,3,3,12,26,08,326,07,29,23,025,38,31,24,276,21,32,12,209,17*7B\n'
'$GPGLL,0105.71294,S,03700.74385,E,135530.00,A,A*71\n'
'$GPRMC,135531.00,A,0105.71344,S,03700.74426,E,0.906,,210421,,,A*60\n'
'$GPVTG,,T,,M,0.906,N,1.678,K,A*24\n'
'$GPGGA,135531.00,0105.71344,S,03700.74426,E,1,05,2.29,1541.7,M,-22.0,M,,*50\n'
'$GPGSA,A,3,20,25,31,29,18,,,,,,,,4.12,2.29,3.43*0D\n'
'$GPGSV,3,1,12,10,47,204,17,12,34,133,13,15,19,097,,18,37,337,24*73\n'
'$GPGSV,3,2,12,20,53,036,40,23,79,171,,24,05,144,08,25,73,108,16*71\n'
'$GPGSV,3,3,12,26,08,326,07,29,23,025,36,31,24,276,22,32,12,209,17*76\n'
'$GPGLL,0105.71344,S,03700.74426,E,135531.00,A,A*72\n'
'$GPRMC,135532.00,A,0105.71373,S,03700.74464,E,0.966,,210421,,,A*67\n'
'$GPVTG,,T,,M,0.966,N,1.789,K,A*2D\n'
